stop_id,stop_code,stop_name,stop_desc,stop_lat,stop_lon,location_type,parent_station,wheelchair_boarding,platform_code,,
220101001,,"Abweiler, Abweiler",,49.533804000000,6.081799000000,0,,0,,,
220101003,,"Abweiler, Cité",,49.532637000000,6.077035000000,0,,0,,,
200501001,,Aéroport,Luxembourg/Findel,,49.634856000000,6.215605000000,0,,0,,
180801001,,"Ahn, Alphonse Steinès",,49.627791000000,6.423771000000,0,,0,,,
180801002,,"Ahn, Op der Bréck",,49.627772000000,6.421201000000,0,,0,,,
180801003,,"Ahn, Op der Musel",,49.625645000000,6.422301000000,0,,0,,,
110801003,,"Allerborn, Bläiminnestrooss",,50.036167000000,5.877755000000,0,,0,,,
110801002,,"Allerborn, Duerefstrooss",,50.035572000000,5.870133000000,0,,0,,,
110801004,,"Allerborn, Féitsch",,50.036085000000,5.886597000000,0,,0,,,
110801001,,"Allerborn, Kräizung",,50.034634000000,5.872477000000,0,,0,,,
120601001,,"Alscheid, Haut",,49.969651000000,6.005339000000,0,,0,,,
120601003,,"Alscheid, Schoulbierg",,49.970162000000,6.010201000000,0,,0,,,
120601002,,"Alscheid, Village",,49.970207000000,6.007786000000,0,,0,,,
180501001,,"Altlinster, Altlinster",,49.722116000000,6.218125000000,0,,0,,,
170201001,,"Altrier, Beim Bildchen",,49.752315000000,6.327988000000,0,,0,,,
170201002,,"Altrier, Heeschbregerwee",,49.751872000000,6.328329000000,0,,0,,,
170201005,,"Altrier, Kreizenhéicht (RN)",,49.748709000000,6.320565000000,0,,0,,,
170201004,,"Altrier, Op der Schanz",,49.750344000000,6.328232000000,0,,0,,,
210501001,,"Altwies, An der Kaatz",,49.509007000000,6.257602000000,0,,0,,,
210501002,,"Altwies, Beckeschmillen",,49.509330000000,6.250079000000,0,,0,,,
210501003,,"Altwies, Bourgässel",,49.510054000000,6.255343000000,0,,0,,,
210501004,,"Altwies, Millbaach",,49.507723000000,6.260710000000,0,,0,,,
200301001,,"Alzingen, Gässel",,49.567735000000,6.163767000000,0,,0,,,
200301002,,"Alzingen, Hondsbréck",,49.564686000000,6.162332000000,0,,0,,,
200301003,,"Alzingen, Trapeneck",,49.567764000000,6.161013000000,0,,0,,,
160401001,,"Angelsberg, Paafendall",,49.762552000000,6.160024000000,0,,0,,,
160208001,,"Ansembourg, Kapell",,49.702331000000,6.040834000000,0,,0,,,
300000136,,"Arlon, Athénée Royale",,49.674900000000,5.810051000000,0,,0,,,
300000141,,"Arlon, Bon coin",,49.689496000000,5.806279000000,0,,0,,,
300000135,,"Arlon, Callemeyn",,49.689586000000,5.823275000000,0,,0,,,
300000002,,"Arlon, Cimetière",,49.691380000000,5.817819000000,0,,0,,,
300000022,,"Arlon, Clairefontaine",,49.677870000000,5.824178000000,0,,0,,,
300000137,,"Arlon, Clinique",,49.678544000000,5.821528000000,0,,0,,,
300000015,,"Arlon, Gare",,49.680347000000,5.809569000000,0,,0,,,
300000003,,"Arlon, Gare routière",,49.680772000000,5.808321000000,0,,0,,,
300000012,,"Arlon, Inst. St. Marie (ISMA)",,49.687264000000,5.810142000000,0,,0,,,
300000013,,"Arlon, Institut Itela (ISI)",,49.672755000000,5.815487000000,0,,0,,,
300000004,,"Arlon, Institut notre Dame (INDA)",,49.682294000000,5.814600000000,0,,0,,,
300000005,,"Arlon, Pl.des Chasseurs Ard.",,49.685358000000,5.817727000000,0,,0,,,
300000006,,"Arlon, rue Léon Castilhon",,49.682672000000,5.806450000000,0,,0,,,
300000001,,"Arlon, Square Astrid",,49.685867000000,5.810372000000,0,,0,,,
300000131,,"Arlon, Sterpenich-Frontière",,49.643748000000,5.904264000000,0,,0,,,
150501001,,"Arsdorf, Am Duerf",,49.860393000000,5.842797000000,0,,0,,,
150501002,,"Arsdorf, Am Gronn",,49.859131000000,5.849868000000,0,,0,,,
150501003,,"Arsdorf, An der Gaass",,49.859000000000,5.842355000000,0,,0,,,
150501006,,"Arsdorf, Bei der Kapell",,49.861772000000,5.844741000000,0,,0,,,
150501008,,"Arsdorf, Misärsbréck (Parking)",,49.868961000000,5.832435000000,0,,0,,,
150501005,,"Arsdorf, Misärshaff",,49.866194000000,5.829749000000,0,,0,,,
150501007,,"Arsdorf, Op der Lee",,49.858666000000,5.846969000000,0,,0,,,
150501004,,"Arsdorf, Um Knupp",,49.862560000000,5.844813000000,0,,0,,,
220501001,,"Aspelt, Am Grëndchen",,49.517894000000,6.233064000000,0,,0,,,
220501002,,"Aspelt, Op der Gare",,49.520283000000,6.225998000000,0,,0,,,
210101001,,"Assel, Assel",,49.554485000000,6.313571000000,0,,0,,,
110802001,,"Asselborn, Burregaass",,50.096315000000,5.974005000000,0,,0,,,
110802006,,"Asselborn, Elwenter Weeg",,50.100259000000,5.974081000000,0,,0,,,
110802004,,"Asselborn, Emeschbach",,50.092026000000,5.954961000000,0,,0,,,
110802005,,"Asselborn, Legaye",,50.110989000000,5.982374000000,0,,0,,,
110802003,,"Asselborn, Seeërei",,50.098444000000,5.971583000000,0,,0,,,
110802002,,"Asselborn, Uäwwelaanst",,50.097173000000,5.971240000000,0,,0,,,
160806001,,"Asselscheuer, Klingelscheuer",,49.692895000000,6.167418000000,0,,0,,,
160801001,,"Asselscheuer, Uesselscheier",,49.690961000000,6.171944000000,0,,0,,,
300000007,,"Athus, Centre (Grand Rue)",,49.562902000000,5.834111000000,0,,0,,,
300000097,,"Athus, Clinique",,49.563557000000,5.821924000000,0,,0,,,
300000008,,"Athus, Croisement Gare",,49.563208000000,5.826913000000,0,,0,,,
300000009,,"Athus, Douane",,49.560743000000,5.843020000000,0,,0,,,
300000010,,"Athus, Garage Peugeot",,49.562666000000,5.837335000000,0,,0,,,
300000017,,"Athus, Gare",,49.563935000000,5.829120000000,0,,0,,,
300000011,,"Athus, Gare routière",,49.564004000000,5.829005000000,0,,0,,,
300000014,,"Athus, rue du Commerce",,49.559234000000,5.840780000000,0,,0,,,
300000140,,"Attert, Maison communale",,49.751996000000,5.784788000000,0,,0,,,
300000139,,"Attert, Voie de la Liberté 84",,49.750476000000,5.786444000000,0,,0,,,
300000099,,"Aubange, Ecole",,49.566333000000,5.801852000000,0,,0,,,
300000132,,"Aubange, Gare routière",,49.564215000000,5.799114000000,0,,0,,,
300000018,,"Aubange, Place",,49.568962000000,5.805526000000,0,,0,,,
300000098,,"Aubange, rue d'Athus",,49.564259000000,5.814741000000,0,,0,,,
300000019,,"Aubange, Village",,49.566802000000,5.809706000000,0,,0,,,
400000045,,"Audun-Le-Roman, Brassens",,49.368832000000,5.902952000000,0,,0,,,
400000023,,"Audun-le-Roman, Eglise",,49.369477000000,5.895141000000,0,,0,,,
400000160,,"Audun-le-Roman, Parking transfrontalier",,49.374888000000,5.902337000000,0,,0,,,
400000140,,"Audun-le-Tiche, Cimetière",,49.472647000000,5.950290000000,0,,0,,,
400000002,,"Audun-le-Tiche, Gare",,49.478591000000,5.958730000000,0,,0,,,
400000161,,"Audun-le-Tiche, Gare routière",,49.478622000000,5.959902000000,0,,0,,,
400000099,,"Audun-le-Tiche, Mairie",,49.472467000000,5.957122000000,0,,0,,,
400000100,,"Audun-le-Tiche, Place du Château",,49.468270000000,5.954207000000,0,,0,,,
400000101,,"Audun-le-Tiche, Résidence Vian",,49.475292000000,5.944148000000,0,,0,,,
400000103,,"Audun-le-Tiche, Saint Nicolas",,49.474533000000,5.937913000000,0,,0,,,
400000117,,"Aumetz, Poste",,49.416010000000,5.941366000000,0,,0,,,
300000088,,"Autelbas, Centre",,49.648582000000,5.866615000000,0,,0,,,
300000089,,"Autelbas, rue d'Autelhaut",,49.648063000000,5.862395000000,0,,0,,,
300000052,,"Autelhaut, Eglise",,49.651298000000,5.843397000000,0,,0,,,
400000166,,"Avril, Libération",,49.288651000000,5.967718000000,0,,0,,,
200401001,,"Bambësch, Centre Sportif",,49.632071000000,6.110485000000,0,,0,,,
300000051,,"Barnich-Autelbas, Eglise",,49.649839000000,5.869818000000,0,,0,,,
300000087,,"Barnich, Ecole",,49.648999000000,5.876010000000,0,,0,,,
110601001,,"Basbellain, Kirrich",,50.144936000000,5.982316000000,0,,0,,,
110601002,,"Basbellain, Willmes",,50.141573000000,5.984081000000,0,,0,,,
190101001,,"Bascharage, Arcades",,49.565731000000,5.908056000000,0,,0,,,
190101002,,"Bascharage, Boeltgen",,49.566669000000,5.913184000000,0,,0,,,
190101003,,"Bascharage, Bomicht",,49.558708000000,5.888730000000,0,,0,,,
190101004,,"Bascharage, Bommelscheuer",,49.572026000000,5.920499000000,0,,0,,,
190101005,,"Bascharage, Bommertbesch",,49.572959000000,5.924034000000,0,,0,,,
190101006,,"Bascharage, Brasserie",,49.568152000000,5.912940000000,0,,0,,,
190101010,,"Bascharage, Continentale Gare",,49.559176000000,5.926063000000,0,,0,,,
190101024,,"Bascharage, Ecocenter",,49.562538000000,5.927318000000,0,,0,,,
190101009,,"Bascharage, Eglise",,49.568231000000,5.906910000000,0,,0,,,
190101012,,"Bascharage, Industriezon",,49.573946000000,5.929036000000,0,,0,,,
190101013,,"Bascharage, Jules Hemmer",,49.560194000000,5.885793000000,0,,0,,,
190101014,,"Bascharage, Op Krattert",,49.559584000000,5.921819000000,0,,0,,,
190101015,,"Bascharage, Pierre Clement",,49.562892000000,5.917309000000,0,,0,,,
190101016,,"Bascharage, Place Schuman",,49.565292000000,5.907581000000,0,,0,,,
190101017,,"Bascharage, Prince Henri",,49.571126000000,5.918409000000,0,,0,,,
190101018,,"Bascharage, Rond-Point André Siebenbour",,49.560415000000,5.893994000000,0,,0,,,
190101019,,"Bascharage, Rue de Schouweiler",,49.573176000000,5.923066000000,0,,0,,,
190102002,,"Bascharage, Scheedwée",,49.572827000000,5.902062000000,0,,0,,,
190101020,,"Bascharage, Sicon",,49.562526000000,5.899968000000,0,,0,,,
190101022,,"Bascharage, Théophile Aubart",,49.560214000000,5.885971000000,0,,0,,,
190101007,,"Bascharage, Treff/Op Acker",,49.563996000000,5.904920000000,0,,0,,,
190101021,,"Bascharage, Widdems Bierg",,49.569780000000,5.906302000000,0,,0,,,
190101027,,"Bascharage/Sanem, Gare",,49.558417000000,5.924589000000,0,,0,,,
190101011,,"Bascharage/Sanem, Gare routière",,49.558267000000,5.924391000000,0,,0,,,
120101001,,"Baschleiden, Elber",,49.894754000000,5.816345000000,0,,0,,,
120101003,,"Baschleiden, Flebour",,49.898804000000,5.811320000000,0,,0,,,
120101004,,"Baschleiden, Hareler Poteau",,49.907791000000,5.808731000000,0,,0,,,
120101002,,"Baschleiden, Kiirch",,49.898537000000,5.818376000000,0,,0,,,
130201001,,"Bastendorf, Beim Terrain",,49.892085000000,6.160078000000,0,,0,,,
130201002,,"Bastendorf, Ge'erwee",,49.886851000000,6.173546000000,0,,0,,,
130201003,,"Bastendorf, Lann",,49.890520000000,6.164138000000,0,,0,,,
300000020,,"Bastogne, Centre Sportif",,50.006214000000,5.724055000000,0,,0,,,
300000021,,"Bastogne, Gare Sud Athénée Royal",,49.999927000000,5.710148000000,0,,0,,,
300000027,,"Bastogne, Home Market",,49.995349000000,5.724794000000,0,,0,,,
300000110,,"Bastogne, Hôtel de Ville",,50.002331000000,5.717507000000,0,,0,,,
300000030,,"Bastogne, Pépinère",,50.006021000000,5.719461000000,0,,0,,,
300000023,,"Bastogne, Place Merceny",,49.998255000000,5.716878000000,0,,0,,,
300000042,,"Bastogne, Route de Wiltz 180",,49.992514000000,5.738495000000,0,,0,,,
120701001,,"Bavigne, Gemeng",,49.920453000000,5.848107000000,0,,0,,,
120701002,,"Bavigne, Parking",,49.918338000000,5.849542000000,0,,0,,,
170101001,,"Beaufort, Aispist",,49.840799000000,6.289033000000,0,,0,,,
170101002,,"Beaufort, Ennescht Heed",,49.844934000000,6.277693000000,0,,0,,,
170101008,,"Beaufort, Halerstrooss",,49.843510000000,6.270149000000,0,,0,,,
170101003,,"Beaufort, Härewiss",,49.833538000000,6.292460000000,0,,0,,,
170101004,,"Beaufort, Huelewee",,49.832810000000,6.296264000000,0,,0,,,
170101005,,"Beaufort, Iewescht Heed",,49.848158000000,6.277376000000,0,,0,,,
170101006,,"Beaufort, Op der Gare",,49.837091000000,6.290743000000,0,,0,,,
170101007,,"Beaufort, Reisduerferstrooss",,49.846624000000,6.284686000000,0,,0,,,
170101009,,"Beaufort, Um Bierg",,49.843294000000,6.288722000000,0,,0,,,
210607002,,"Bech-Kleinmacher, Centre",,49.531839000000,6.354697000000,0,,0,,,
210607005,,"Bech-Kleinmacher, Esplanade",,49.531913000000,6.355760000000,0,,0,,,
210607003,,"Bech-Kleinmacher, Furwee",,49.527687000000,6.354535000000,0,,0,,,
170202001,,"Bech, Bei der Gemeng",,49.751585000000,6.362507000000,0,,0,,,
170202002,,"Bech, Beim Weiher",,49.752286000000,6.362286000000,0,,0,,,
170202003,,"Bech, Béiwerwiss",,49.748264000000,6.363712000000,0,,0,,,
170202004,,"Bech, Neidierfchen",,49.752573000000,6.363585000000,0,,0,,,
170202005,,"Bech, Um Faubourg",,49.752725000000,6.359648000000,0,,0,,,
150101001,,"Beckerich, Bei Schmatten",,49.730186000000,5.883553000000,0,,0,,,
150101002,,"Beckerich, Fraiheetsbam",,49.728013000000,5.891044000000,0,,0,,,
150101003,,"Beckerich, Kiircheplaz",,49.732165000000,5.884890000000,0,,0,,,
200402001,,"Beggen, Bastogne",,49.645927000000,6.128271000000,0,,0,,,
200402002,,"Beggen, Binnchen",,49.641641000000,6.130297000000,0,,0,,,
200402003,,"Beggen, Cyprien Merjai",,49.643399000000,6.134779000000,0,,0,,,
200402004,,"Beggen, Henri Dunant",,49.647594000000,6.134546000000,0,,0,,,
200402005,,"Beggen, Henri Heymanns",,49.637963000000,6.132148000000,0,,0,,,
200402006,,"Beggen, Kierch",,49.643420000000,6.129472000000,0,,0,,,
200402007,,"Beggen, Rue du Pont",,49.649008000000,6.127688000000,0,,0,,,
300000069,,"Beho, rue de l'Eglise",,50.219566000000,5.997516000000,0,,0,,,
180502001,,"Beidweiler, Am Duerf",,49.728155000000,6.301233000000,0,,0,,,
180502002,,"Beidweiler, Op der Gare",,49.732330000000,6.302479000000,0,,0,,,
110701002,,"Beiler, Bei der aler Schull",,50.164186000000,6.087887000000,0,,0,,,
110701003,,"Beiler, Beim Krécks",,50.165094000000,6.090044000000,0,,0,,,
110701004,,"Beiler, Kisfurt",,50.153316000000,6.080798000000,0,,0,,,
110701001,,"Beiler, Op der Halt",,50.160386000000,6.088790000000,0,,0,,,
200403001,,"Belair, Amsterdam",,49.612203000000,6.108185000000,0,,0,,,
200403002,,"Belair, Archiducs",,49.612674000000,6.112256000000,0,,0,,,
200403003,,"Belair, Aubépines",,49.615499000000,6.098270000000,0,,0,,,
200403004,,"Belair, Bragance",,49.607298000000,6.114955000000,0,,0,,,
200403006,,"Belair, Crécy",,49.608866000000,6.116856000000,0,,0,,,
200403007,,"Belair, Franciscaines",,49.608274000000,6.112973000000,0,,0,,,
200403023,,"Belair, Glaesener-Hartmann",,49.611595000000,6.101880000000,0,,0,,,
200403008,,"Belair, Guillaume",,49.606639000000,6.118455000000,0,,0,,,
200403009,,"Belair, Kannerklinik/Maternité",,49.617937000000,6.097544000000,0,,0,,,
200403010,,"Belair, Kierch",,49.610455000000,6.107721000000,0,,0,,,
200403017,,"Belair, Nicolas Simmer",,49.614244000000,6.113534000000,0,,0,,,
200403012,,"Belair, Oradour",,49.609560000000,6.103939000000,0,,0,,,
200403013,,"Belair, Place de France",,49.606391000000,6.106370000000,0,,0,,,
200403014,,"Belair, Place de Liège",,49.608594000000,6.107776000000,0,,0,,,
200403015,,"Belair, Rheinsheim",,49.607454000000,6.120829000000,0,,0,,,
200403018,,"Belair, Rue d'Ostende",,49.614387000000,6.108458000000,0,,0,,,
200403016,,"Belair, Rue de l'Ouest",,49.614847000000,6.096111000000,0,,0,,,
200403005,,"Belair, Sacré-Coeur",,49.610276000000,6.113159000000,0,,0,,,
200403019,,"Belair, Val Ste Croix",,49.612298000000,6.097588000000,0,,0,,,
200403020,,"Belair, Wampach",,49.609889000000,6.121087000000,0,,0,,,
200403021,,"Belair, Wandmillen",,49.615843000000,6.102653000000,0,,0,,,
221301023,,"Belval (Lycée), Gare",,49.501502000000,5.934709000000,0,,0,,,
221301019,,"Belval (Lycée), Gare routière",,49.501769000000,5.934131000000,0,,0,,,
220401002,,"Belval (Université), Gare",,49.499550000000,5.946283000000,0,,0,,,
220401001,,"Belval (Université), Gare routière",,49.499159000000,5.946548000000,0,,0,,,
221301002,,"Belval-Rédange, Gare",,49.503162000000,5.923706000000,0,,0,,,
221301010,,"Belvaux-Soleuvre, Gare",,49.515145000000,5.926076000000,0,,0,,,
221301006,,"Belvaux-Soleuvre, Gare routière",,49.514412000000,5.925494000000,0,,0,,,
221301003,,"Belvaux, Batting",,49.507752000000,5.923100000000,0,,0,,,
221301004,,"Belvaux, Belval",,49.501352000000,5.937191000000,0,,0,,,
221301026,,"Belvaux, Belval Lycée",,49.503137000000,5.937562000000,0,,0,,,
221301011,,"Belvaux, Boulodrome",,49.513546000000,5.947021000000,0,,0,,,
221301005,,"Belvaux, Brill",,49.508801000000,5.943808000000,0,,0,,,
221301028,,"Belvaux, Ënnert Zolwerwee",,49.512997000000,5.931410000000,0,,0,,,
221301008,,"Belvaux, Grenz",,49.501292000000,5.920729000000,0,,0,,,
221301009,,"Belvaux, Henri Tudor",,49.510798000000,5.934846000000,0,,0,,,
221301029,,"Belvaux, Kannercampus/CIPA",,49.506436000000,5.934525000000,0,,0,,,
221301007,,"Belvaux, Mairie",,49.511219000000,5.930079000000,0,,0,,,
221301014,,"Belvaux, Mairie/Poste",,49.510293000000,5.928478000000,0,,0,,,
221301017,,"Belvaux, Metzerlach",,49.513734000000,5.947831000000,0,,0,,,
221301012,,"Belvaux, Milliounelach",,49.504505000000,5.930863000000,0,,0,,,
221301013,,"Belvaux, Pakebierg",,49.515864000000,5.935167000000,0,,0,,,
221301015,,"Belvaux, Postschoul",,49.508425000000,5.925198000000,0,,0,,,
221301016,,"Belvaux, Roudewee",,49.510253000000,5.939093000000,0,,0,,,
221301018,,"Belvaux, Roudewee Schoul",,49.512627000000,5.941733000000,0,,0,,,
221301020,,"Belvaux, Stade",,49.506822000000,5.928634000000,0,,0,,,
221301022,,"Belvaux, Uewerkuerer Stroos",,49.514378000000,5.921369000000,0,,0,,,
221301027,,"Belvaux, Um Bedding",,49.502881000000,5.943146000000,0,,0,,,
221301024,,"Belvaux, Wenschel",,49.504814000000,5.921917000000,0,,0,,,
180601002,,"Berbourg, Kiirch",,49.731357000000,6.394358000000,0,,0,,,
180601001,,"Berbourg, Schoulstrooss",,49.734269000000,6.393470000000,0,,0,,,
221101001,,"Berchem, Gare",,49.542667000000,6.133752000000,0,,0,,,
221101002,,"Berchem, Gare routière",,49.542548000000,6.133995000000,0,,0,,,
170301001,,"Berdorf, Bif. Heisbich",,49.817170000000,6.344796000000,0,,0,,,
170305001,,"Berdorf, Bif. Kalkesbach",,49.800203000000,6.343348000000,0,,0,,,
170301004,,"Berdorf, Duerfplaz",,49.821965000000,6.349881000000,0,,0,,,
170301002,,"Berdorf, Hotel Herber",,49.823485000000,6.352600000000,0,,0,,,
170301003,,"Berdorf, Hotel Perekop",,49.819863000000,6.358798000000,0,,0,,,
201001001,,"Bereldange, Elterstrachen",,49.660952000000,6.125964000000,0,,0,,,
201001002,,"Bereldange, Police",,49.656736000000,6.127247000000,0,,0,,,
201001004,,"Bereldange, Rue du Pont",,49.649587000000,6.127820000000,0,,0,,,
201001003,,"Bereldange, Schoul",,49.653309000000,6.127402000000,0,,0,,,
180102001,,"Berg, Bei der Schmett",,49.681716000000,6.358296000000,0,,0,,,
180102002,,"Berg, Haff Biel",,49.679264000000,6.351054000000,0,,0,,,
220801010,,"Bergem, Am Haff",,49.522328000000,6.042924000000,0,,0,,,
220801011,,"Bergem, Beim Nëssert",,49.523634000000,6.040004000000,0,,0,,,
220801002,,"Bergem, Blummestrooss",,49.519343000000,6.045639000000,0,,0,,,
220801004,,"Bergem, Centre",,49.524169000000,6.041502000000,0,,0,,,
220801007,,"Bergem, Naerzengerstrooss",,49.517946000000,6.045519000000,0,,0,,,
220801008,,"Bergem, Raedelsboesch",,49.521701000000,6.046970000000,0,,0,,,
220801009,,"Bergem, Steebréckerwee",,49.527307000000,6.036405000000,0,,0,,,
160901001,,"Beringen, Wäschbur",,49.758261000000,6.114671000000,0,,0,,,
121001001,,"Berlé, Um Dréisch",,49.953036000000,5.857932000000,0,,0,,,
200102001,,"Bertrange, Automobile Club",,49.601296000000,6.069208000000,0,,0,,,
200101002,,"Bertrange, Belle-Etoile",,49.621905000000,6.049868000000,0,,0,,,
200102002,,"Bertrange, City Concorde",,49.600655000000,6.065608000000,0,,0,,,
200101004,,"Bertrange, Dicks",,49.604736000000,6.052244000000,0,,0,,,
200101021,,"Bertrange, Ecole Européenne II",,49.617732000000,6.037987000000,0,,0,,,
200101006,,"Bertrange, Fleuri",,49.605142000000,6.076054000000,0,,0,,,
200101024,,"Bertrange, Gare",,49.613095000000,6.059369000000,0,,0,,,
200101007,,"Bertrange, Gare routière",,49.613042000000,6.060798000000,0,,0,,,
200101009,,"Bertrange, Gaston Thorn / LJBM",,49.621132000000,6.036786000000,0,,0,,,
200101008,,"Bertrange, Gemeng",,49.610579000000,6.050286000000,0,,0,,,
200102004,,"Bertrange, Helfenterbrück",,49.603661000000,6.078089000000,0,,0,,,
200101010,,"Bertrange, Kirfecht",,49.611925000000,6.058260000000,0,,0,,,
200101011,,"Bertrange, Millewee",,49.617884000000,6.048102000000,0,,0,,,
200101012,,"Bertrange, Montereale",,49.609834000000,6.063950000000,0,,0,,,
200101022,,"Bertrange, Pesch",,49.617656000000,6.053386000000,0,,0,,,
200101014,,"Bertrange, Richterwee",,49.607328000000,6.070140000000,0,,0,,,
200101017,,"Bertrange, Rue de Mamer",,49.615788000000,6.048560000000,0,,0,,,
200101015,,"Bertrange, rue de Strassen",,49.616464000000,6.061878000000,0,,0,,,
200102005,,"Bertrange, Spatzwiss",,49.610698000000,6.068781000000,0,,0,,,
200101019,,"Bertrange, Waassertuerm",,49.620842000000,6.048083000000,0,,0,,,
500101067,,"Besch, Chemiewerk",,49.517298000000,6.376334000000,0,,0,,,
500101059,,"Besch, Ortsmitte B419",,49.504620000000,6.372647000000,0,,0,,,
190301001,,"Bettange-sur-Mess, Bei der Barriär",,49.572788000000,5.996185000000,0,,0,,,
190305001,,"Bettange-sur-Mess, Dippecherstrooss",,49.575874000000,5.989235000000,0,,0,,,
190301003,,"Bettange-sur-Mess, Kescht",,49.576293000000,5.992828000000,0,,0,,,
190300503,,"Bettange-sur-Mess, Spillplaz",,49.574282000000,5.985337000000,0,,0,,,
150206001,,"Bettborn, Gemenge Plaz",,49.793639000000,5.937502000000,0,,0,,,
150204001,,"Bettborn, Michel Lucius",,49.794720000000,5.946736000000,0,,0,,,
150206002,,"Bettborn, Néckel Koob",,49.793961000000,5.937921000000,0,,0,,,
130202001,,"Bettel, Bei der Bréck",,49.920805000000,6.224754000000,0,,0,,,
130202002,,"Bettel, Bei der Schmëdd",,49.917047000000,6.225733000000,0,,0,,,
400000064,,Bettembourg-frontière,,49.472215000000,6.107772000000,0,,0,,,
220102001,,"Bettembourg, 12 Gargullen",,49.525682000000,6.100813000000,0,,0,,,
220102002,,"Bettembourg, Al Gemeng",,49.520095000000,6.099889000000,0,,0,,,
220102003,,"Bettembourg, Am Dräieck",,49.519588000000,6.109641000000,0,,0,,,
220102033,,"Bettembourg, Cactus",,49.512858000000,6.093041000000,0,,0,,,
220102004,,"Bettembourg, Café du Stadion",,49.513187000000,6.110184000000,0,,0,,,
220102013,,"Bettembourg, Fankenacker",,49.528704000000,6.101755000000,0,,0,,,
220102018,,Bettemburg Gare,,49.516515000000,6.101676000000,0,,0,,,
220102005,,"Bettembourg, Gare routière",,49.516606000000,6.101996000000,0,,0,,,
220102006,,"Bettembourg, Kiercheplaz",,49.518346000000,6.097597000000,0,,0,,,
220102015,,"Bettembourg, Krackelshaff-IFSB",,49.508224000000,6.103272000000,0,,0,,,
220102016,,"Bettembourg, Krackelshaff-MOOG",,49.507302000000,6.107056000000,0,,0,,,
220102017,,"Bettembourg, Krackelshaff-P&T",,49.504107000000,6.109289000000,0,,0,,,
220102007,,"Bettembourg, Mosselter",,49.506140000000,6.126026000000,0,,0,,,
220102008,,"Bettembourg, Parc Merveilleux",,49.509351000000,6.118727000000,0,,0,,,
220102009,,"Bettembourg, Peppingerschleid",,49.520045000000,6.114380000000,0,,0,,,
220102010,,"Bettembourg, Place de la Paix",,49.519739000000,6.095018000000,0,,0,,,
220102011,,"Bettembourg, Rousegärtchen",,49.519929000000,6.091693000000,0,,0,,,
220102012,,"Bettembourg, Route d'Abweiler",,49.525581000000,6.087298000000,0,,0,,,
220102032,,"Bettembourg, Scheleck",,49.509050000000,6.093331000000,0,,0,,,
140201002,,"Bettendorf, Bei der Gemeng",,49.876086000000,6.217387000000,0,,0,,,
140201003,,"Bettendorf, Beim Schlass",,49.876571000000,6.221437000000,0,,0,,,
140201004,,"Bettendorf, Bleesbréck",,49.871898000000,6.189210000000,0,,0,,,
140201001,,"Bettendorf, Elick",,49.876099000000,6.212830000000,0,,0,,,
140201005,,"Bettendorf, Seltz",,49.878700000000,6.188525000000,0,,0,,,
180101001,,"Betzdorf, Banzelt",,49.673254000000,6.328692000000,0,,0,,,
180103001,,"Betzdorf, Bei der Schoul",,49.687575000000,6.348378000000,0,,0,,,
180103002,,"Betzdorf, Gare",,49.688801000000,6.348666000000,0,,0,,,
180101002,,"Betzdorf, Op der Banzelt",,49.672904000000,6.329338000000,0,,0,,,
400000123,,"Beuvillers, Centre",,49.384739000000,5.915071000000,0,,0,,,
400000096,,"Beyren-lès-Sierck, Église",,49.469977000000,6.287450000000,0,,0,,,
180301001,,"Beyren, An der Fuert",,49.632902000000,6.333540000000,0,,0,,,
180301002,,"Beyren, Op der Bréck",,49.629935000000,6.335831000000,0,,0,,,
141201001,,"Bigelbach, Kiirch",,49.860136000000,6.286618000000,0,,0,,,
141201002,,"Bigelbach, Op der Tonn",,49.861200000000,6.281151000000,0,,0,,,
150517004,,"Bigonville-Poteau, Kimm",,49.838419000000,5.784000000000,0,,0,,,
150517003,,"Bigonville-Poteau, Um Kimm",,49.838093000000,5.783604000000,0,,0,,,
150502006,,"Bigonville, Am Duerf",,49.848456000000,5.792979000000,0,,0,,,
150502007,,"Bigonville, Haaptstrooss",,49.851411000000,5.791660000000,0,,0,,,
150502001,,"Bigonville, Huelgaass",,49.851048000000,5.793493000000,0,,0,,,
150502002,,"Bigonville, Kéismaart",,49.848651000000,5.792330000000,0,,0,,,
150502005,,"Bigonville, Réimerwee",,49.845430000000,5.791647000000,0,,0,,,
150502004,,"Bigonville, Um Knupp",,49.853629000000,5.790229000000,0,,0,,,
150503001,,"Bilsdorf, Riesenhafferwee",,49.857630000000,5.827339000000,0,,0,,,
500000005,,"Bilzingen Ort, Wincheringen",,49.598255000000,6.451546000000,0,,0,,,
110702002,,"Binsfeld, Beim alen Burren",,50.119626000000,6.036935000000,0,,0,,,
110702003,,"Binsfeld, Beim Musée",,50.117306000000,6.035905000000,0,,0,,,
110702001,,"Binsfeld, Om Béchel",,50.119851000000,6.040758000000,0,,0,,,
160101011,,"Bissen, Beim Maes",,49.787424000000,6.071448000000,0,,0,,,
160101012,,"Bissen, Beim Steekräiz",,49.785443000000,6.077465000000,0,,0,,,
160101003,,"Bissen, Geiwels",,49.791841000000,6.071752000000,0,,0,,,
160101006,,"Bissen, Henckels",,49.789649000000,6.064609000000,0,,0,,,
160101010,,"Bissen, Innovation Campus",,49.786290000000,6.083223000000,0,,0,,,
160101002,,"Bissen, Kräizung",,49.789098000000,6.063262000000,0,,0,,,
160101005,,"Bissen, Op der Millen",,49.795030000000,6.074624000000,0,,0,,,
160101013,,"Bissen, Route de Mersch (arrêt provisoire)",,49.782850000000,6.069695000000,0,,0,,,
160101014,,"Bissen, Route de Roost (arrêt provisoire)",,49.787227000000,6.068980000000,0,,0,,,
160101008,,"Bissen, Um Sand",,49.787479000000,6.059602000000,0,,0,,,
160101009,,"Bissen, Z.A.C. Klengbousbierg",,49.788451000000,6.086842000000,0,,0,,,
500000023,,"Bitburg, Steinebrück Kreuzung",,49.975160000000,6.503518000000,0,,0,,,
500000009,,"Bitburg, ZOB",,49.976053000000,6.527101000000,0,,0,,,
221102001,,"Bivange, Edward Steichen",,49.545809000000,6.137884000000,0,,0,,,
221102002,,"Bivange, Schoul",,49.541390000000,6.136170000000,0,,0,,,
130101002,,"Bivels, Bei der Kiirch",,49.959405000000,6.192918000000,0,,0,,,
130101003,,"Bivels, Op der Loch",,49.956538000000,6.190971000000,0,,0,,,
130101001,,"Bivels, Op der Millen",,49.950265000000,6.195987000000,0,,0,,,
180201004,,"Biwer, Gemeng",,49.705578000000,6.372684000000,0,,0,,,
180201002,,"Biwer, Haaptstrooss",,49.702413000000,6.376141000000,0,,0,,,
180201005,,"Biwer, Haaptstrooss 2",,49.705977000000,6.371512000000,0,,0,,,
180201003,,"Biwer, Klosmillen",,49.713314000000,6.358655000000,0,,0,,,
110609001,,"Biwisch, Biwisch",,50.116894000000,5.979477000000,0,,0,,,
160802004,,"Blaschette, Fëschbecherstrooss",,49.703142000000,6.166871000000,0,,0,,,
160802002,,"Blaschette, Kräizung",,49.702252000000,6.164710000000,0,,0,,,
160802001,,"Blaschette, Op der Kräizung",,49.702527000000,6.166297000000,0,,0,,,
160802003,,"Blaschette, Wormeldenger Strooss",,49.699436000000,6.166595000000,0,,0,,,
180503001,,"Blumenthal, Blummendall",,49.743529000000,6.265869000000,0,,0,,,
120401001,,"Bockholtz (Goesdorf), Bockholtz",,49.922882000000,5.995148000000,0,,0,,,
120401002,,"Bockholtz (Goesdorf), Op der Millen",,49.926510000000,6.006366000000,0,,0,,,
110411001,,"Bockholtz (Parc Hosingen), Kiirch",,50.011563000000,6.050759000000,0,,0,,,
160201007,,"Boevange-sur-Attert, Beim Wald",,49.770545000000,6.022237000000,0,,0,,,
160201003,,"Boevange-sur-Attert, Gare",,49.774801000000,6.008181000000,0,,0,,,
160201004,,"Boevange-sur-Attert, Helpert",,49.774869000000,6.011026000000,0,,0,,,
160201005,,"Boevange-sur-Attert, Lëtschert",,49.773193000000,6.017791000000,0,,0,,,
160201002,,"Boevange-sur-Attert, Millen",,49.777175000000,6.014570000000,0,,0,,,
160201006,,"Boevange-sur-Attert, Uerbelt",,49.774646000000,6.008852000000,0,,0,,,
110824001,,"Boevange, Wëntgerdall",,50.048403000000,5.929589000000,0,,0,,,
160803002,,"Bofferdange, Bouferknupp",,49.682299000000,6.138052000000,0,,0,,,
160803001,,"Bofferdange, Maison de Retraite",,49.689402000000,6.140380000000,0,,0,,,
121002001,,"Bohey, Um Weiher",,49.972722000000,5.842318000000,0,,0,,,
170302001,,"Bollendorf-Pont, Gare",,49.849563000000,6.354129000000,0,,0,,,
170302002,,"Bollendorf-Pont, Hamicht",,49.846901000000,6.367936000000,0,,0,,,
170302003,,"Bollendorf-Pont, Pont",,49.850229000000,6.359117000000,0,,0,,,
120509001,,"Bonnal, Um Bommel",,49.902900000000,5.886416000000,0,,0,,,
200404003,,"Bonnevoie, Anatole France",,49.598717000000,6.149483000000,0,,0,,,
200404004,,"Bonnevoie, Baden-Powell",,49.599995000000,6.150599000000,0,,0,,,
200404006,,"Bonnevoie, Chalop",,49.600279000000,6.149351000000,0,,0,,,
200404007,,"Bonnevoie, Demy Schlechter",,49.594995000000,6.143403000000,0,,0,,,
200404008,,"Bonnevoie, Dernier Sol",,49.594452000000,6.137788000000,0,,0,,,
200404013,,"Bonnevoie, Fraternité",,49.599168000000,6.140059000000,0,,0,,,
200404014,,"Bonnevoie, Gabriel Lippmann",,49.599087000000,6.142597000000,0,,0,,,
200404016,,"Bonnevoie, Hippodrome",,49.593314000000,6.139059000000,0,,0,,,
200404017,,"Bonnevoie, Huese Vic",,49.603719000000,6.137093000000,0,,0,,,
200404018,,"Bonnevoie, Izeger Knupp",,49.595945000000,6.150171000000,0,,0,,,
200404019,,"Bonnevoie, Jean Jacoby",,49.598384000000,6.146915000000,0,,0,,,
200404020,,"Bonnevoie, Jeanne d'Arc",,49.596711000000,6.147677000000,0,,0,,,
200404021,,"Bonnevoie, Jules Fischer",,49.592282000000,6.146468000000,0,,0,,,
200404022,,"Bonnevoie, Kaltreis",,49.593658000000,6.150830000000,0,,0,,,
200404023,,"Bonnevoie, Kofferfabrick",,49.600930000000,6.145105000000,0,,0,,,
200404026,,"Bonnevoie, Léon XIII",,49.596990000000,6.137847000000,0,,0,,,
200404009,,"Bonnevoie, Leschte Steiwer / Dernier Sol",,49.594299000000,6.136330000000,0,,0,,,
200404031,,"Bonnevoie, Lycée Bouneweg (Tram)",,49.590327000000,6.138694000000,0,,0,,,
200404032,,"Bonnevoie, Lycée Bouneweg PE",,49.590662000000,6.139519000000,0,,0,,,
200404027,,"Bonnevoie, Lycée Technique de Bonnevoie/Quais",,49.591165000000,6.141662000000,0,,0,,,
200404029,,"Bonnevoie, Nic Martha",,49.592998000000,6.148876000000,0,,0,,,
200404033,,"Bonnevoie, Pont-Remy",,49.594543000000,6.144398000000,0,,0,,,
200404034,,"Bonnevoie, Rotonde",,49.599514000000,6.137298000000,0,,0,,,
200404035,,"Bonnevoie, Vannérus",,49.597477000000,6.141528000000,0,,0,,,
200404036,,"Bonnevoie, Virchow",,49.601725000000,6.139425000000,0,,0,,,
200404037,,"Bonnevoie, Willibrord",,49.593854000000,6.140896000000,0,,0,,,
200404038,,"Bonnevoie, Wisestrooss",,49.597909000000,6.144451000000,0,,0,,,
170601005,,"Born, Burer Millen",,49.771573000000,6.510573000000,0,,0,,,
170601001,,"Born, Kapell",,49.758211000000,6.510328000000,0,,0,,,
170601002,,"Born, Op der Gare",,49.756951000000,6.507403000000,0,,0,,,
170601003,,"Born, Op Kimmelt",,49.767439000000,6.514685000000,0,,0,,,
170601004,,"Born, Pëtzwee",,49.760310000000,6.513038000000,0,,0,,,
180202001,,"Boudler, Boudler",,49.722110000000,6.351280000000,0,,0,,,
180203001,,"Boudlerbach, Boudlerbaach",,49.717542000000,6.353358000000,0,,0,,,
120103003,,"Boulaide, Beim Camping",,49.890598000000,5.815673000000,0,,0,,,
120103004,,"Boulaide, Post",,49.887407000000,5.815654000000,0,,0,,,
161109001,,"Bour, Bour",,49.701033000000,6.017761000000,0,,0,,,
180504001,,"Bourglinster, Am Brill",,49.707079000000,6.217441000000,0,,0,,,
180504002,,"Bourglinster, Am Duerf",,49.703394000000,6.217713000000,0,,0,,,
180504003,,"Bourglinster, Buchholz",,49.704007000000,6.212067000000,0,,0,,,
140301004,,"Bourscheid, An der Schlënner",,49.932129000000,6.070465000000,0,,0,,,
140301001,,"Bourscheid, Bei der Kiirch",,49.909868000000,6.064279000000,0,,0,,,
140301002,,"Bourscheid, Bei Meesch",,49.907665000000,6.060378000000,0,,0,,,
140301005,,"Bourscheid, Beim Schlass",,49.906031000000,6.077661000000,0,,0,,,
140301003,,"Bourscheid, Op der Millen",,49.914024000000,6.089009000000,0,,0,,,
170602001,,"Boursdorf, Am Duerf",,49.764078000000,6.477856000000,0,,0,,,
210102001,,"Bous, Enner dem Pavé",,49.555665000000,6.333791000000,0,,0,,,
210102002,,"Bous, Herdermillen",,49.556088000000,6.338162000000,0,,0,,,
210102003,,"Bous, Kapell",,49.554453000000,6.325684000000,0,,0,,,
210102004,,"Bous, Kiirch",,49.555349000000,6.329320000000,0,,0,,,
110803001,,"Boxhorn, Am Eck",,50.083946000000,5.991211000000,0,,0,,,
110803002,,"Boxhorn, Hauptstrooss",,50.080200000000,5.996195000000,0,,0,,,
110803003,,"Boxhorn, Schemer",,50.082103000000,5.990297000000,0,,0,,,
110804001,,"Brachtenbach, Bei der Kirich",,50.020717000000,5.909477000000,0,,0,,,
110804002,,"Brachtenbach, Om Bierig",,50.019409000000,5.904692000000,0,,0,,,
130203001,,"Brandenbourg, Bakes",,49.911579000000,6.136564000000,0,,0,,,
130203002,,"Brandenbourg, Kapell",,49.910984000000,6.139831000000,0,,0,,,
130203003,,"Brandenbourg, Laangwiss",,49.908997000000,6.141711000000,0,,0,,,
130203004,,"Brandenbourg, Terminus",,49.913958000000,6.121386000000,0,,0,,,
130203005,,"Brandenbourg, Vereinsbau",,49.911359000000,6.139038000000,0,,0,,,
300000029,,"Bras, Carrefour",,49.985930000000,5.818823000000,0,,0,,,
110703001,,"Breidfeld, Al Molkerei",,50.123159000000,6.062448000000,0,,0,,,
170401002,,"Breidweiler, Jemenerhaff",,49.773589000000,6.299270000000,0,,0,,,
170401001,,"Breidweiler, Präitler",,49.777396000000,6.302853000000,0,,0,,,
180204001,,"Breinert, Breinert",,49.711962000000,6.342445000000,0,,0,,,
180204002,,"Breinert, Breinertknupp",,49.712442000000,6.335093000000,0,,0,,,
190801001,,"Bridel, Berk",,49.659790000000,6.078554000000,0,,0,,,
190802005,,"Bridel, Biirgerkräiz",,49.646437000000,6.097913000000,0,,0,,,
190801002,,"Bridel, Flamo",,49.659010000000,6.081571000000,0,,0,,,
190801003,,"Bridel, Schanz",,49.648916000000,6.084454000000,0,,0,,,
190801004,,"Bridel, Stuff",,49.652854000000,6.083376000000,0,,0,,,
190801005,,"Bridel, Taverne",,49.657071000000,6.082657000000,0,,0,,,
500000042,,"Brimingen, Abzw.",,49.967010000000,6.359763000000,0,,0,,,
140206001,,"Broderbour, Broderbour",,49.852138000000,6.185699000000,0,,0,,,
160202001,,"Brouch (Mersch), Kiercheplaz",,49.735197000000,6.020308000000,0,,0,,,
160202002,,"Brouch (Mersch), Kloeppel",,49.738797000000,6.030603000000,0,,0,,,
160202003,,"Brouch (Mersch), Kneppchen",,49.741881000000,6.017061000000,0,,0,,,
180205001,,"Brouch (Wecker), Brouch",,49.728613000000,6.340877000000,0,,0,,,
180205002,,"Brouch (Wecker), Gaerleck",,49.731595000000,6.347466000000,0,,0,,,
120402001,,"Buederscheid, Bitschtermillen",,49.932596000000,5.939446000000,0,,0,,,
120402002,,"Buederscheid, Village",,49.933921000000,5.941259000000,0,,0,,,
140601003,,"Burden, Beim Bur",,49.882002000000,6.096793000000,0,,0,,,
140601001,,"Burden, Beim Fëschweier",,49.878035000000,6.078768000000,0,,0,,,
140601002,,"Burden, Haaptstrooss",,49.881991000000,6.091200000000,0,,0,,,
210604001,,"Burmerange, Bei der Kiirch",,49.486176000000,6.322165000000,0,,0,,,
210604002,,"Burmerange, Résidence Stoffels",,49.484653000000,6.324071000000,0,,0,,,
210604003,,"Burmerange, Um Schotz",,49.487618000000,6.319984000000,0,,0,,,
160203001,,"Buschdorf, Belle Vue",,49.746720000000,6.010174000000,0,,0,,,
160203002,,"Buschdorf, Helpërtwee",,49.751154000000,6.012172000000,0,,0,,,
160203003,,"Buschdorf, Määschhaff",,49.750219000000,6.006880000000,0,,0,,,
151002001,,"Buschrodt, Buschrodt",,49.826036000000,5.934515000000,0,,0,,,
151002002,,"Buschrodt, Schoul",,49.826534000000,5.932955000000,0,,0,,,
150701001,,"Calmus, Lannekneppchen",,49.721590000000,5.960935000000,0,,0,,,
150701004,,"Calmus, Titzebierg",,49.727992000000,5.966244000000,0,,0,,,
150701003,,"Calmus, Wäschbur",,49.724957000000,5.963016000000,0,,0,,,
210401008,,"Canach, Am Bruch",,49.609485000000,6.328910000000,0,,0,,,
210401001,,"Canach, Am Stee",,49.612247000000,6.331935000000,0,,0,,,
210401002,,"Canach, Huehlgaass",,49.608044000000,6.315898000000,0,,0,,,
210401003,,"Canach, Op der Bréck",,49.611730000000,6.326730000000,0,,0,,,
210401004,,"Canach, Post",,49.609367000000,6.324530000000,0,,0,,,
210401006,,"Canach, Weber",,49.609038000000,6.322626000000,0,,0,,,
210401007,,"Canach, Z.A. Rëckschleed",,49.605769000000,6.306555000000,0,,0,,,
400000164,,"Cantebonne, Libération",,49.459121000000,5.927405000000,0,,0,,,
190901008,,"Capellen, Eechterfeld",,49.641721000000,6.012421000000,0,,0,,,
190901001,,"Capellen, Gare",,49.638498000000,5.982381000000,0,,0,,,
190901006,,"Capellen, Gewännchen",,49.640433000000,5.984132000000,0,,0,,,
190901010,,"Capellen, Hirebesch",,49.641745000000,6.006462000000,0,,0,,,
190901002,,"Capellen, Hireknapp",,49.641542000000,6.001760000000,0,,0,,,
190901003,,"Capellen, Klouschter",,49.645916000000,5.985996000000,0,,0,,,
190901009,,"Capellen, Pafebruch",,49.640829000000,6.013871000000,0,,0,,,
190901004,,"Capellen, Police",,49.644283000000,5.992218000000,0,,0,,,
190901005,,"Capellen, Ponts et Chaussées",,49.646152000000,5.977164000000,0,,0,,,
400000007,,"Cattenom, Gendarmerie CD",,49.407348000000,6.240140000000,0,,0,,,
200405062,,"Centre, Adolphe Fischer",,49.599994000000,6.128023000000,0,,0,,,
200405003,,"Centre, Alsace",,49.596039000000,6.130332000000,0,,0,,,
200405005,,"Centre, Badanstalt",,49.613535000000,6.129166000000,0,,0,,,
200405007,,"Centre, Cathédrale",,49.610004000000,6.131145000000,0,,0,,,
200405012,,"Centre, Etats-Unis",,49.600302000000,6.126663000000,0,,0,,,
200405013,,"Centre, F.D. Roosevelt",,49.608793000000,6.131646000000,0,,0,,,
200405014,,"Centre, Fondation Pescatore",,49.615707000000,6.126753000000,0,,0,,,
200405018,,"Centre, Gruef",,49.611087000000,6.131663000000,0,,0,,,
200405022,,"Centre, Kasinosgaass",,49.612370000000,6.131519000000,0,,0,,,
200405045,,"Centre, Stäreplaz / Étoile (Bus)",,49.613509000000,6.119060000000,0,,0,,,
200405061,,"Centre, Stäreplaz / Étoile (Tram)",,49.613676000000,6.119604000000,0,,0,,,
200406025,,"Cents-Hamm, Gare",,49.615019000000,6.165978000000,0,,0,,,
200406024,,"Cents-Hamm, Halte CFL",,49.614587000000,6.165975000000,0,,0,,,
200406002,,"Cents, Arthur Knaff",,49.618368000000,6.160577000000,0,,0,,,
200406003,,"Cents, Camille Polfer",,49.619366000000,6.176332000000,0,,0,,,
200406004,,"Cents, Carmel",,49.618326000000,6.172432000000,0,,0,,,
200406005,,"Cents, Charles de Tornaco",,49.619244000000,6.163295000000,0,,0,,,
200406006,,"Cents, Dinselpuert",,49.610749000000,6.140890000000,0,,0,,,
200414010,,"Cents, Fetschebuer",,49.614074000000,6.162308000000,0,,0,,,
200406007,,"Cents, Fort Dumoulin",,49.612424000000,6.147894000000,0,,0,,,
200406008,,"Cents, Gabriel de Marie",,49.619016000000,6.165732000000,0,,0,,,
200406010,,"Cents, Jules Salentiny",,49.616556000000,6.159346000000,0,,0,,,
200406011,,"Cents, Kéibierg-I.N.S.",,49.611157000000,6.143219000000,0,,0,,,
200406012,,"Cents, Kierch",,49.615493000000,6.160744000000,0,,0,,,
200406013,,"Cents, Nic Rollinger",,49.611590000000,6.151653000000,0,,0,,,
200406014,,"Cents, Paul Albrecht",,49.620727000000,6.174246000000,0,,0,,,
200406015,,"Cents, Pommiers",,49.612783000000,6.157343000000,0,,0,,,
200406016,,"Cents, Robert Bruch",,49.616913000000,6.166159000000,0,,0,,,
200406017,,"Cents, Tawioun",,49.613863000000,6.154068000000,0,,0,,,
200406018,,"Cents, Trèves",,49.617635000000,6.169565000000,0,,0,,,
200406019,,"Cents, Waassertuerm",,49.620830000000,6.182881000000,0,,0,,,
200407014,,"Cessange, Am Brill",,49.588172000000,6.099146000000,0,,0,,,
200407001,,"Cessange, Am Eck",,49.585292000000,6.098446000000,0,,0,,,
200407002,,"Cessange, Antoine",,49.584018000000,6.100305000000,0,,0,,,
200407003,,"Cessange, Artisans",,49.594470000000,6.109927000000,0,,0,,,
200407004,,"Cessange, Barrès",,49.595866000000,6.115754000000,0,,0,,,
200407005,,"Cessange, Boy Konen",,49.580370000000,6.094033000000,0,,0,,,
200407006,,"Cessange, Duerf",,49.587128000000,6.103082000000,0,,0,,,
200407015,,"Cessange, EIGT",,49.590013000000,6.110509000000,0,,0,,,
200407007,,"Cessange, Fischerhaff",,49.591365000000,6.105599000000,0,,0,,,
200407008,,"Cessange, Kierch",,49.589127000000,6.106728000000,0,,0,,,
200407009,,"Cessange, Kuelebierg",,49.588241000000,6.111250000000,0,,0,,,
200407010,,"Cessange, Rue de Leudelange",,49.582008000000,6.097311000000,0,,0,,,
200407011,,"Cessange, Rue Verte",,49.589672000000,6.115234000000,0,,0,,,
200407012,,"Cessange, Tubishaff",,49.585850000000,6.107019000000,0,,0,,,
170801003,,"Christnach, Fielserstrooss",,49.788127000000,6.266500000000,0,,0,,,
170801001,,"Christnach, Hierheck",,49.787365000000,6.269482000000,0,,0,,,
170801002,,"Christnach, Schoulstrooss",,49.788240000000,6.273041000000,0,,0,,,
170801004,,"Christnach, Um Bierg",,49.790221000000,6.271591000000,0,,0,,,
200408001,,"Clausen, Clausener Bréck",,49.613483000000,6.143416000000,0,,0,,,
200408003,,"Clausen, Malakoff",,49.615172000000,6.146585000000,0,,0,,,
200408004,,"Clausen, Melusina",,49.611373000000,6.141393000000,0,,0,,,
200408005,,"Clausen, Plateau Altmunster",,49.612748000000,6.139859000000,0,,0,,,
200408006,,"Clausen, Rumm",,49.610778000000,6.139171000000,0,,0,,,
200408007,,"Clausen, Ste Cunégonde",,49.614330000000,6.141275000000,0,,0,,,
200408008,,"Clausen, Tour Jacob",,49.611780000000,6.142546000000,0,,0,,,
190104001,,"Clemency, Breedewee",,49.590611000000,5.879317000000,0,,0,,,
190104002,,"Clemency, Eecherwee",,49.602176000000,5.875877000000,0,,0,,,
190104003,,"Clemency, Féngegerbierg",,49.598206000000,5.885924000000,0,,0,,,
190104004,,"Clemency, Gemeng",,49.598582000000,5.873537000000,0,,0,,,
190104005,,"Clemency, Henn",,49.594123000000,5.877461000000,0,,0,,,
190104006,,"Clemency, Iewescht Gaass",,49.594928000000,5.874275000000,0,,0,,,
190104007,,"Clemency, Schock",,49.604821000000,5.877895000000,0,,0,,,
190104008,,"Clemency, Schwemm",,49.594782000000,5.880176000000,0,,0,,,
110101013,,"Clervaux, Baastnecherstrooss",,50.064428000000,6.022033000000,0,,0,,,
110101001,,"Clervaux, Clinique",,50.053323000000,6.025082000000,0,,0,,,
110101016,,"Clervaux, Gare",,50.061583000000,6.024627000000,0,,0,,,
110101002,,"Clervaux, Gare routière/Lycée",,50.063617000000,6.024306000000,0,,0,,,
110101015,,"Clervaux, Hall Polyvalent",,50.061290000000,6.018076000000,0,,0,,,
110101014,,"Clervaux, Kalborn/Kaalber",,50.101920000000,6.111628000000,0,,0,,,
110101017,,"Clervaux, Lycée",,50.064380000000,6.022240000000,0,,0,,,
110101004,,"Clervaux, Maison de Retraite",,50.057799000000,6.025616000000,0,,0,,,
110101009,,"Clervaux, Place Benelux",,50.054794000000,6.031070000000,0,,0,,,
110101008,,"Clervaux, Place de la Libération",,50.052878000000,6.029981000000,0,,0,,,
110101010,,"Clervaux, Police",,50.054141000000,6.025698000000,0,,0,,,
110101011,,"Clervaux, Postes",,50.054836000000,6.030853000000,0,,0,,,
140311001,,"Closdelt, Closdelt",,49.903034000000,6.121466000000,0,,0,,,
170405005,,"Colbette, Colbette",,49.768840000000,6.303923000000,0,,0,,,
160301001,,"Colmar-Berg, C. Administratif",,49.803796000000,6.091192000000,0,,0,,,
160301002,,"Colmar-Berg, Centre",,49.811917000000,6.097169000000,0,,0,,,
160301003,,"Colmar-Berg, Faubourg",,49.805932000000,6.095122000000,0,,0,,,
141302004,,"Colmar-Berg, Gare",,49.815019000000,6.101071000000,0,,0,,,
160301005,,"Colmar-Berg, Goldbierg",,49.810114000000,6.096215000000,0,,0,,,
160301018,,"Colmar-Berg, Piscine",,49.811528000000,6.093292000000,0,,0,,,
160301014,,"Colmar-Berg, place Pemmers",,49.813936000000,6.086954000000,0,,0,,,
160301006,,"Colmar-Berg, Raedelsboesch",,49.796713000000,6.097960000000,0,,0,,,
160301011,,"Colmar-Berg, rue d'Ettelbruck",,49.812820000000,6.097829000000,0,,0,,,
160301020,,"Colmar-Berg, rue de l'Alzette",,49.812794000000,6.098032000000,0,,0,,,
160301015,,"Colmar-Berg, rue Martzen 1",,49.818277000000,6.086758000000,0,,0,,,
160301016,,"Colmar-Berg, rue Martzen 2",,49.816503000000,6.086375000000,0,,0,,,
160301007,,"Colmar-Berg, Usines",,49.804830000000,6.091963000000,0,,0,,,
160301009,,"Colmar-Berg, Z.I. Jean Piret",,49.804052000000,6.103172000000,0,,0,,,
160301017,,"Colmar-Berg, Z.I. Rond-Point",,49.805806000000,6.102094000000,0,,0,,,
150301001,,"Colpach-Bas, Schlass",,49.757830000000,5.826406000000,0,,0,,,
150302001,,"Colpach-Haut, Pompjeesbau",,49.767505000000,5.819479000000,0,,0,,,
170402002,,"Consdorf, Haenricht",,49.780852000000,6.340784000000,0,,0,,,
170402007,,"Consdorf, Konstrëfermillen",,49.778959000000,6.327717000000,0,,0,,,
170402003,,"Consdorf, Kräizstrooss",,49.782461000000,6.347074000000,0,,0,,,
170402004,,"Consdorf, Melicksheck",,49.787677000000,6.345869000000,0,,0,,,
170402001,,"Consdorf, Op der Gare",,49.773145000000,6.341105000000,0,,0,,,
170402005,,"Consdorf, Post",,49.778548000000,6.336905000000,0,,0,,,
170402009,,"Consdorf, rue Hicht (arrêt provisoire)",,49.781725000000,6.347263000000,0,,0,,,
170402006,,"Consdorf, Schoul",,49.779861000000,6.337191000000,0,,0,,,
110404001,,"Consthum, Ennescht Duerf",,49.972302000000,6.050016000000,0,,0,,,
110404004,,"Consthum, Kémel",,49.972415000000,6.057777000000,0,,0,,,
110404003,,"Consthum, Knupp",,49.973633000000,6.052524000000,0,,0,,,
110404002,,"Consthum, Wollefswee",,49.972378000000,6.058219000000,0,,0,,,
200201001,,"Contern, Birewee",,49.586492000000,6.223398000000,0,,0,,,
200201002,,"Contern, I.E.E.",,49.593471000000,6.222059000000,0,,0,,,
200201011,,"Contern, Ieselslach",,49.595250000000,6.221952000000,0,,0,,,
200201003,,"Contern, Kiircheplaz",,49.585243000000,6.227565000000,0,,0,,,
200201004,,"Contern, Kräizgaass",,49.584787000000,6.225514000000,0,,0,,,
200201005,,"Contern, Kuehne & Nagel",,49.596803000000,6.215510000000,0,,0,,,
200201009,,"Contern, Läiteschbaach",,49.599343000000,6.224802000000,0,,0,,,
200201006,,"Contern, Millewee",,49.586915000000,6.231175000000,0,,0,,,
200201010,,"Contern, Paul Rischard",,49.601383000000,6.221767000000,0,,0,,,
200201008,,"Contern, Rond Point Z.I.",,49.593530000000,6.215807000000,0,,0,,,
200201007,,"Contern, Weihergewann",,49.596333000000,6.213803000000,0,,0,,,
221103001,,"Crauthem, Am Gruef",,49.537054000000,6.144854000000,0,,0,,,
221103002,,"Crauthem, Beim Schlass",,49.534713000000,6.144710000000,0,,0,,,
110805001,,"Crendal, Duerefstrooss",,50.056563000000,5.896157000000,0,,0,,,
161001008,,"Cruchten, Gare",,49.796287000000,6.120104000000,0,,0,,,
161001002,,"Cruchten, Haaptstrooss",,49.798986000000,6.129306000000,0,,0,,,
161001003,,"Cruchten, Heemeschbaach",,49.801358000000,6.141742000000,0,,0,,,
161001004,,"Cruchten, Neistrooss",,49.798993000000,6.130145000000,0,,0,,,
161001007,,"Cruchten, Schlaederhaff",,49.803182000000,6.123199000000,0,,0,,,
161001005,,"Cruchten, Schléf",,49.796998000000,6.124079000000,0,,0,,,
161001006,,"Cruchten, Zaneschhaff",,49.803977000000,6.114241000000,0,,0,,,
120403003,,"Dahl, Al Molkerei",,49.934394000000,5.975244000000,0,,0,,,
120403001,,"Dahl, Ale Wee",,49.935690000000,5.975522000000,0,,0,,,
120403002,,"Dahl, Masselerstrooss",,49.934650000000,5.978534000000,0,,0,,,
120403004,,"Dahl, Waassertuurm",,49.935455000000,5.969249000000,0,,0,,,
190401004,,"Dahlem, Aal Schoul",,49.598496000000,5.945750000000,0,,0,,,
190401001,,"Dahlem, Um Eck",,49.598017000000,5.946886000000,0,,0,,,
190401002,,"Dahlem, Um Pëtz",,49.600917000000,5.948206000000,0,,0,,,
210301004,,"Dalheim, Gemeng",,49.543166000000,6.258982000000,0,,0,,,
210301001,,"Dalheim, Hossegaass",,49.540648000000,6.261640000000,0,,0,,,
210301002,,"Dalheim, Poste",,49.542753000000,6.256676000000,0,,0,,,
210301003,,"Dalheim, Waasserklapp",,49.546861000000,6.255470000000,0,,0,,,
300000086,,"Deiffelt, Carrefour",,50.195739000000,6.007069000000,0,,0,,,
110806001,,"Deiffelt, Haaptstrooss",,50.064946000000,5.963198000000,0,,0,,,
151009001,,"Dellen, Am Duerf",,49.858648000000,5.958648000000,0,,0,,,
110807008,,"Derenbach, Am Dueref",,50.011263000000,5.885209000000,0,,0,,,
110807003,,"Derenbach, Bei der Kirich",,50.014585000000,5.888897000000,0,,0,,,
110807006,,"Derenbach, Beim Wämperwee",,50.015059000000,5.883457000000,0,,0,,,
110807002,,"Derenbach, Groësteen",,50.009671000000,5.887385000000,0,,0,,,
110807001,,"Derenbach, Kapell",,50.011322000000,5.883575000000,0,,0,,,
110807004,,"Derenbach, Weischent",,50.009417000000,5.894692000000,0,,0,,,
170608001,,"Dickweiler, Duerfplaz",,49.783115000000,6.472484000000,0,,0,,,
140401011,,"Diekirch, Alexis Heck",,49.868154000000,6.162222000000,0,,0,,,
140401001,,"Diekirch, Altersheem",,49.866543000000,6.159387000000,0,,0,,,
140401005,,"Diekirch, An der Kléck",,49.868736000000,6.172068000000,0,,0,,,
140401017,,"Diekirch, Bei der Tirelbaach",,49.864432000000,6.174825000000,0,,0,,,
140401016,,"Diekirch, Beim Waasserbaseng",,49.860553000000,6.163564000000,0,,0,,,
140401013,,"Diekirch, Centre Militaire",,49.873606000000,6.173287000000,0,,0,,,
140401003,,"Diekirch, Dräi Braken",,49.879793000000,6.150992000000,0,,0,,,
140401012,,"Diekirch, Fielserstrooss",,49.863757000000,6.162984000000,0,,0,,,
140401021,,"Diekirch, Fitness",,49.877222000000,6.135207000000,0,,0,,,
140401022,,"Diekirch, Friedhaff",,49.890866000000,6.135057000000,0,,0,,,
140401018,,"Diekirch, Gare",,49.864733000000,6.154070000000,0,,0,,,
140401004,,"Diekirch, Gare routière",,49.864488000000,6.152860000000,0,,0,,,
140401014,,"Diekirch, Hall logistique",,49.878130000000,6.171756000000,0,,0,,,
140401020,,"Diekirch, Hannert der Seitert",,49.874729000000,6.133822000000,0,,0,,,
140401008,,"Diekirch, Lorentzwues",,49.860182000000,6.145557000000,0,,0,,,
140401009,,"Diekirch, Neie Kolleisch",,49.864793000000,6.168248000000,0,,0,,,
140401006,,"Diekirch, op der Kluuster",,49.869662000000,6.158011000000,0,,0,,,
140401010,,"Diekirch, Place Récollets",,49.870301000000,6.158809000000,0,,0,,,
140401007,,"Diekirch, rue J. Merten",,49.864835000000,6.167615000000,0,,0,,,
140401019,,"Diekirch, Selzesland",,49.871324000000,6.131301000000,0,,0,,,
220201027,,"Differdange, Aalt Stadhaus",,49.520984000000,5.886939000000,0,,0,,,
220201003,,"Differdange, Arbed",,49.522880000000,5.894500000000,0,,0,,,
220201065,,"Differdange, Avenue Charlotte",,49.518747000000,5.888857000000,0,,0,,,
220201004,,"Differdange, Béckleck",,49.512560000000,5.872013000000,0,,0,,,
220201006,,"Differdange, Centre",,49.524257000000,5.889336000000,0,,0,,,
220201011,,"Differdange, Cité Breitfeld",,49.521137000000,5.912888000000,0,,0,,,
220201012,,"Differdange, Douane",,49.510547000000,5.872037000000,0,,0,,,
220201019,,"Differdange, Fousbann",,49.521764000000,5.898245000000,0,,0,,,
220201021,,"Differdange, Gare",,49.522547000000,5.891656000000,0,,0,,,
220201022,,"Differdange, Gemeng",,49.520763000000,5.888015000000,0,,0,,,
220201023,,"Differdange, Gewännchen",,49.521369000000,5.914998000000,0,,0,,,
220201025,,"Differdange, Grillplaz",,49.513877000000,5.869106000000,0,,0,,,
220201018,,"Differdange, Groussstrooss",,49.523228000000,5.885186000000,0,,0,,,
220201026,,"Differdange, Henri Grey",,49.520865000000,5.905937000000,0,,0,,,
220201039,,"Differdange, Jugendfabrik",,49.520968000000,5.904208000000,0,,0,,,
220201005,,"Differdange, Lidl",,49.521073000000,5.909998000000,0,,0,,,
220201066,,"Differdange, Maartplaz",,49.522618000000,5.887587000000,0,,0,,,
220201068,,"Differdange, Opkorn",,49.521545000000,5.891567000000,0,,0,,,
220201034,,"Differdange, Parc Gerlache",,49.524270000000,5.890814000000,0,,0,,,
220201036,,"Differdange, Place de France",,49.521330000000,5.882874000000,0,,0,,,
220201041,,"Differdange, Roudenhaff",,49.529947000000,5.845952000000,0,,0,,,
220201044,,"Differdange, Rue de Hussigny",,49.517694000000,5.880106000000,0,,0,,,
220201045,,"Differdange, Rue de la Montagne",,49.520523000000,5.882889000000,0,,0,,,
220201053,,"Differdange, Schoul",,49.522722000000,5.889898000000,0,,0,,,
220201054,,"Differdange, Seelebunn",,49.518783000000,5.897215000000,0,,0,,,
220201067,,"Differdange, Vesquenhaff",,49.509691000000,5.872058000000,0,,0,,,
300000138,,"Differt, Institut Cardijn",,49.613410000000,5.808559000000,0,,0,,,
500000010,,"Dillingen (Saar), Eissporthalle",,49.346701000000,6.711075000000,0,,0,,,
170102002,,"Dillingen, Cloosbierg",,49.843426000000,6.319428000000,0,,0,,,
170102001,,"Dillingen, Déiljen",,49.852462000000,6.319756000000,0,,0,,,
190301004,,"Dippach-Reckange, Gare",,49.572519000000,5.995253000000,0,,0,,,
190302001,,"Dippach, Bei der Crèche",,49.587443000000,5.983555000000,0,,0,,,
190302002,,"Dippach, Bei der Kapell",,49.587779000000,5.980634000000,0,,0,,,
190302003,,"Dippach, Dippëcherbierg",,49.588868000000,5.993266000000,0,,0,,,
190302004,,"Dippach, Op der Haard",,49.578972000000,5.991221000000,0,,0,,,
190302005,,"Dippach, Op der Kopp",,49.587358000000,5.971785000000,0,,0,,,
190302008,,"Dippach, Rond-Point",,49.586452000000,5.971619000000,0,,0,,,
190302006,,"Dippach, Um Däich",,49.587571000000,5.988268000000,0,,0,,,
190302007,,"Dippach, Um Pull",,49.587645000000,5.985677000000,0,,0,,,
120513001,,"Dirbach, Bifurcation",,49.921017000000,6.030828000000,0,,0,,,
120513002,,"Dirbach, Village",,49.920401000000,6.033193000000,0,,0,,,
190607001,,"Direndall, Direndall",,49.688368000000,6.089570000000,0,,0,,,
110808001,,"Doennange, Haaptstrooss",,50.061269000000,5.956534000000,0,,0,,,
200409003,,"Dommeldange, Château",,49.634696000000,6.138628000000,0,,0,,,
200409014,,"Dommeldange, Chingiz Aitmatov",,49.639241000000,6.137641000000,0,,0,,,
200409005,,"Dommeldange, Contournement",,49.633039000000,6.139667000000,0,,0,,,
200409006,,"Dommeldange, Dauschbuer",,49.640134000000,6.153049000000,0,,0,,,
200409007,,"Dommeldange, Emile Metz",,49.635082000000,6.134256000000,0,,0,,,
200409015,,"Dommeldange, Gare",,49.633834000000,6.136892000000,0,,0,,,
200409008,,"Dommeldange, Gare routière",,49.633333000000,6.137004000000,0,,0,,,
200409009,,"Dommeldange, Jean Engling",,49.638231000000,6.141552000000,0,,0,,,
200409010,,"Dommeldange, Parc de l'Europe",,49.638811000000,6.144247000000,0,,0,,,
200409012,,"Dommeldange, Sidney Thomas",,49.634474000000,6.139486000000,0,,0,,,
200409013,,"Dommeldange, Uelzechtlycée",,49.637105000000,6.137116000000,0,,0,,,
200409011,,"Dommeldange, Van der Meulen",,49.636296000000,6.143701000000,0,,0,,,
121003001,,"Doncols, Bei der Kierch",,49.969998000000,5.837470000000,0,,0,,,
121003002,,"Doncols, Beim Schnegder",,49.968969000000,5.835240000000,0,,0,,,
121003003,,"Doncols, Um Wäschbur",,49.968161000000,5.832281000000,0,,0,,,
190601001,,"Dondelange, Dondel",,49.688064000000,6.029991000000,0,,0,,,
190601002,,"Dondelange, Pompstatioun",,49.695541000000,6.025105000000,0,,0,,,
110401001,,"Dorscheid, Am Duerf",,50.035564000000,6.071872000000,0,,0,,,
110401002,,"Dorscheid, Am Poul",,50.036511000000,6.079213000000,0,,0,,,
110401004,,"Dorscheid, Lehmkaul",,50.041990000000,6.079656000000,0,,0,,,
110109004,,"Drauffelt, Gare",,50.016901000000,6.007188000000,0,,0,,,
110109002,,"Drauffelt, Op der Gare",,50.017329000000,6.006857000000,0,,0,,,
110109003,,"Drauffelt, Op der Léi",,50.015071000000,6.001285000000,0,,0,,,
110109005,,"Drauffelt, Park & Rail",,50.016897000000,6.007746000000,0,,0,,,
180806001,,"Dreiborn, Billek",,49.624285000000,6.399539000000,0,,0,,,
110602001,,"Drinklange, Drinklange",,50.134367000000,6.015337000000,0,,0,,,
220301015,,"Dudelange (Centre), Gare",,49.478696000000,6.082150000000,0,,0,,,
220301041,,"Dudelange (Usines), Gare",,49.472609000000,6.079433000000,0,,0,,,
220301082,,"Dudelange (Ville), Gare",,49.483383000000,6.083183000000,0,,0,,,
220301035,,"Dudelange, A Bëlleg",,49.492558000000,6.084476000000,0,,0,,,
220301054,,"Dudelange, An der Soibelkaul",,49.495197000000,6.085200000000,0,,0,,,
220301002,,"Dudelange, Angeldall",,49.488857000000,6.069959000000,0,,0,,,
220301004,,"Dudelange, Belair",,49.478512000000,6.093214000000,0,,0,,,
220301005,,"Dudelange, Biereng",,49.492798000000,6.089223000000,0,,0,,,
220301006,,"Dudelange, Birenger Barrière",,49.493220000000,6.085798000000,0,,0,,,
220301009,,"Dudelange, Breiningerbierg",,49.481636000000,6.090194000000,0,,0,,,
220301013,,"Dudelange, Butschebuerg",,49.491315000000,6.068033000000,0,,0,,,
220301014,,"Dudelange, Casino",,49.472133000000,6.083546000000,0,,0,,,
220301056,,"Dudelange, Centre Culturel / CNA",,49.474094000000,6.083978000000,0,,0,,,
220301016,,"Dudelange, Centre Sportif",,49.485758000000,6.088911000000,0,,0,,,
220301094,,"Dudelange, CFL Multimodal",,49.498052000000,6.097691000000,0,,0,,,
220301029,,"Dudelange, Commerce",,49.478810000000,6.086093000000,0,,0,,,
220301018,,"Dudelange, Dennewald",,49.491982000000,6.088100000000,0,,0,,,
220301087,,"Dudelange, Eurohub",,49.496968000000,6.113446000000,0,,0,,,
220301020,,"Dudelange, Gaffelt",,49.481732000000,6.080158000000,0,,0,,,
220301022,,"Dudelange, Gare",,49.482676000000,6.083205000000,0,,0,,,
220301012,,"Dudelange, Gare-Burange",,49.492411000000,6.086196000000,0,,0,,,
220301024,,"Dudelange, Gemeng",,49.478134000000,6.084448000000,0,,0,,,
220301027,,"Dudelange, Greisendall",,49.463196000000,6.081955000000,0,,0,,,
220301017,,"Dudelange, Jugendhaus",,49.482790000000,6.086568000000,0,,0,,,
220301030,,"Dudelange, Kierfecht",,49.483352000000,6.080320000000,0,,0,,,
220301032,,"Dudelange, Kräizbierg",,49.478978000000,6.099191000000,0,,0,,,
220301062,,"Dudelange, L.N.B. Annexe Alliance",,49.472218000000,6.073637000000,0,,0,,,
220301063,,"Dudelange, Lenkeschléi",,49.481162000000,6.101818000000,0,,0,,,
220301095,,"Dudelange, LNS",,49.497826000000,6.087163000000,0,,0,,,
220301034,,"Dudelange, Lycée Nic Biever",,49.483279000000,6.090839000000,0,,0,,,
220301072,,"Dudelange, Mayrisch Saint-Hubert",,49.479623000000,6.100390000000,0,,0,,,
220301037,,"Dudelange, Nuddelsfabrik",,49.485439000000,6.081989000000,0,,0,,,
220301040,,"Dudelange, Pullewee",,49.486295000000,6.091282000000,0,,0,,,
220301091,,"Dudelange, Riedgen 1",,49.485402000000,6.111390000000,0,,0,,,
220301092,,"Dudelange, Riedgen 2",,49.489896000000,6.112046000000,0,,0,,,
220301093,,"Dudelange, Riedgen 3",,49.493515000000,6.110599000000,0,,0,,,
220301064,,"Dudelange, Route de Burange",,49.486489000000,6.084951000000,0,,0,,,
220301019,,"Dudelange, Route de Kayl",,49.486570000000,6.072715000000,0,,0,,,
220301042,,"Dudelange, Route de Luxembourg",,49.489063000000,6.082614000000,0,,0,,,
220301046,,"Dudelange, Rue Alexandre Fleming",,49.490525000000,6.089998000000,0,,0,,,
220301031,,"Dudelange, Rue Aloyse Kayser",,49.484723000000,6.075146000000,0,,0,,,
220301033,,"Dudelange, Rue Antoine Zinnen",,49.478525000000,6.088111000000,0,,0,,,
220301003,,"Dudelange, Rue de Hellange",,49.493112000000,6.094083000000,0,,0,,,
220301065,,"Dudelange, Rue de la Fontaine",,49.479802000000,6.080976000000,0,,0,,,
220301038,,"Dudelange, Rue de la Rivière",,49.476443000000,6.084438000000,0,,0,,,
220301075,,"Dudelange, Rue de la Vallée",,49.482928000000,6.080345000000,0,,0,,,
220301066,,"Dudelange, Rue des Bobineurs",,49.495291000000,6.075509000000,0,,0,,,
220301044,,"Dudelange, Rue des Lamineurs",,49.496067000000,6.081727000000,0,,0,,,
220301021,,"Dudelange, Rue des Modeleurs",,49.494826000000,6.081346000000,0,,0,,,
220301045,,"Dudelange, Rue des Mouleurs",,49.495168000000,6.077298000000,0,,0,,,
220301061,,"Dudelange, Rue du Parc",,49.486786000000,6.090825000000,0,,0,,,
220301069,,"Dudelange, Rue Fany Schumacher",,49.487830000000,6.091820000000,0,,0,,,
220301070,,"Dudelange, Rue Grand-Duc Adolphe",,49.470836000000,6.084096000000,0,,0,,,
220301089,,"Dudelange, Rue Léon Weyrich",,49.484365000000,6.093448000000,0,,0,,,
220301043,,"Dudelange, Rue Louis Rech",,49.499315000000,6.084915000000,0,,0,,,
220301088,,"Dudelange, Rue Nic Biever",,49.484386000000,6.096755000000,0,,0,,,
220301047,,"Dudelange, Rue Pasteur",,49.490438000000,6.093448000000,0,,0,,,
220301026,,"Dudelange, Rue Ribeschpont",,49.493006000000,6.084444000000,0,,0,,,
220301073,,"Dudelange, Rue Schortgen",,49.486234000000,6.070324000000,0,,0,,,
220301048,,"Dudelange, Scherr",,49.488115000000,6.062929000000,0,,0,,,
220301074,,"Dudelange, Scherrwee",,49.485960000000,6.066595000000,0,,0,,,
220301049,,"Dudelange, Schlakemillen",,49.465336000000,6.081622000000,0,,0,,,
220301050,,"Dudelange, Schmelz",,49.468497000000,6.082020000000,0,,0,,,
220301058,,"Dudelange, Schnauzelach",,49.474777000000,6.082858000000,0,,0,,,
220301084,,"Dudelange, Schoul Ribeschpont",,49.493223000000,6.081759000000,0,,0,,,
220301078,,"Dudelange, Square Mayrisch",,49.482403000000,6.085576000000,0,,0,,,
220301057,,"Dudelange, Waldschoul",,49.483576000000,6.102484000000,0,,0,,,
170501002,,"Echternach, Bel-Air",,49.819853000000,6.394862000000,0,,0,,,
170501003,,"Echternach, Belle Vue",,49.810736000000,6.415876000000,0,,0,,,
170501004,,"Echternach, Centre de secours",,49.808285000000,6.411135000000,0,,0,,,
170501005,,"Echternach, Centre Ville",,49.811806000000,6.418945000000,0,,0,,,
170501006,,"Echternach, Charly's Halt",,49.810378000000,6.415635000000,0,,0,,,
170501018,,"Echternach, Ermesinde",,49.815245000000,6.416112000000,0,,0,,,
170501007,,"Echternach, Fielsmillen",,49.818128000000,6.406146000000,0,,0,,,
170501016,,"Echternach, Gare Centre",,49.810230000000,6.417321000000,0,,0,,,
170501021,,"Echternach, Lauterborn",,49.799935000000,6.391311000000,0,,0,,,
170501009,,"Echternach, Lycée",,49.813104000000,6.424668000000,0,,0,,,
170501010,,"Echternach, Manertchen",,49.799318000000,6.453078000000,0,,0,,,
170501011,,"Echternach, Morgenstern",,49.810055000000,6.424880000000,0,,0,,,
170501012,,"Echternach, Nonnenmillen-Lac",,49.805883000000,6.405802000000,0,,0,,,
170501014,,"Echternach, Route d'Osweiler",,49.807531000000,6.429626000000,0,,0,,,
170501022,,"Echternach, Specksmillen",,49.802127000000,6.396781000000,0,,0,,,
170501015,,"Echternach, Ste Croix",,49.808712000000,6.429970000000,0,,0,,,
221001001,,"Ehlange, Am Brill",,49.545869000000,6.015421000000,0,,0,,,
221001002,,"Ehlange, Am Pull",,49.548317000000,6.012969000000,0,,0,,,
221302001,,"Ehlerange, Centre",,49.522938000000,5.964820000000,0,,0,,,
221302002,,"Ehlerange, Dännebësch",,49.529179000000,5.950808000000,0,,0,,,
221302008,,"Ehlerange, Ecole",,49.523465000000,5.966375000000,0,,0,,,
221302005,,"Ehlerange, Keupewee",,49.525890000000,5.961886000000,0,,0,,,
221302007,,"Ehlerange, Rousebësch",,49.527936000000,5.957271000000,0,,0,,,
221302003,,"Ehlerange, rue d'Esch",,49.517724000000,5.965829000000,0,,0,,,
221302006,,"Ehlerange, rue de Mondercange",,49.525580000000,5.974347000000,0,,0,,,
221302010,,"Ehlerange, ZARE 2",,49.520113000000,5.973179000000,0,,0,,,
221302009,,"Ehlerange, ZARE ouest",,49.514444000000,5.966696000000,0,,0,,,
180802001,,"Ehnen, An den Aessen",,49.601948000000,6.385948000000,0,,0,,,
180802002,,"Ehnen, Bromelt",,49.597345000000,6.380231000000,0,,0,,,
180802003,,"Ehnen, Ieselsbreck",,49.600887000000,6.388279000000,0,,0,,,
180802004,,"Ehnen, Lehboesch",,49.604815000000,6.389746000000,0,,0,,,
180802006,,"Ehnen, Lehboesch 2",,49.604663000000,6.392525000000,0,,0,,,
180802005,,"Ehnen, Neie Wee",,49.601742000000,6.388135000000,0,,0,,,
180802007,,"Ehnen, Puddel",,49.600761000000,6.388351000000,0,,0,,,
150702001,,"Ehner, Kapell",,49.717187000000,5.948158000000,0,,0,,,
150702002,,"Ehner, Krier",,49.717462000000,5.950410000000,0,,0,,,
200410001,,"Eich, Centre Culturel",,49.628936000000,6.132373000000,0,,0,,,
200410002,,"Eich, Ecole Eich",,49.626949000000,6.127712000000,0,,0,,,
200410004,,"Eich, Eecher Klinick",,49.631790000000,6.134643000000,0,,0,,,
200410003,,"Eich, Eecher Plaz",,49.627562000000,6.129933000000,0,,0,,,
200410005,,"Eich, Octroi",,49.622552000000,6.130325000000,0,,0,,,
190501003,,"Eischen, Denn Mairie",,49.683759000000,5.878009000000,0,,0,,,
190501001,,"Eischen, Denn Pont",,49.683800000000,5.878760000000,0,,0,,,
190501002,,"Eischen, rue de Hobscheid",,49.685860000000,5.880640000000,0,,0,,,
110406001,,"Eisenbach, Bei der Baach",,50.004828000000,6.147099000000,0,,0,,,
110406002,,"Eisenbach, Bongertswies",,50.008949000000,6.142011000000,0,,0,,,
110406003,,"Eisenbach, Bréck",,50.000054000000,6.144995000000,0,,0,,,
110406004,,"Eisenbach, Kounenhaff",,50.016666000000,6.136457000000,0,,0,,,
180505001,,"Eisenborn, Am Duerf",,49.691720000000,6.184016000000,0,,0,,,
400000014,,"Elange-Veymerange, Stade",,49.359040000000,6.111170000000,0,,0,,,
150303001,,"Ell, Arelerstrooss",,49.761028000000,5.858991000000,0,,0,,,
150303002,,"Ell, Beim Musikssaul",,49.762967000000,5.853915000000,0,,0,,,
150303003,,"Ell, Beim Schreider",,49.763406000000,5.859575000000,0,,0,,,
210502001,,"Ellange, Ellenger Gare",,49.515382000000,6.304688000000,0,,0,,,
210502002,,"Ellange, Martialis",,49.520264000000,6.297506000000,0,,0,,,
210502003,,"Ellange, rue de la Gare",,49.516347000000,6.303918000000,0,,0,,,
150601001,,"Eltz, Elz",,49.777477000000,5.893396000000,0,,0,,,
150102002,,"Elvange (Beckerich), Bei der Schoul",,49.724374000000,5.917042000000,0,,0,,,
150102001,,"Elvange (Beckerich), Gesanksbau",,49.724488000000,5.919549000000,0,,0,,,
210605001,,"Elvange (Mondorf), Bei Tubes",,49.505202000000,6.315503000000,0,,0,,,
210605002,,"Elvange (Mondorf), Kallekskaul",,49.502101000000,6.314000000000,0,,0,,,
210605003,,"Elvange (Mondorf), Villette",,49.507035000000,6.314707000000,0,,0,,,
210605004,,"Elvange (Mondorf), Wëntrengerstrooss",,49.504348000000,6.318289000000,0,,0,,,
210606001,,"Emerange, Centre Culturel",,49.487463000000,6.291279000000,0,,0,,,
120602001,,"Enscherange, Bei Steckech",,49.998638000000,5.990684000000,0,,0,,,
120602002,,"Enscherange, Loumillen",,49.996842000000,5.994684000000,0,,0,,,
140501001,,"Eppeldorf, Faubourg",,49.843593000000,6.248540000000,0,,0,,,
140501002,,"Eppeldorf, Gaich",,49.846380000000,6.246409000000,0,,0,,,
140501003,,"Eppeldorf, Haaptstrooss",,49.844571000000,6.247548000000,0,,0,,,
140501006,,"Eppeldorf, Hessemillen",,49.852409000000,6.240336000000,0,,0,,,
140501004,,"Eppeldorf, Hossebierg",,49.846317000000,6.264315000000,0,,0,,,
140501005,,"Eppeldorf, Op Baach",,49.846526000000,6.249579000000,0,,0,,,
140501007,,"Eppeldorf, Op de Gruechten",,49.846295000000,6.258329000000,0,,0,,,
140502001,,"Ermsdorf, Buntewee",,49.830130000000,6.217583000000,0,,0,,,
140502002,,"Ermsdorf, Ermsdorf",,49.828573000000,6.221803000000,0,,0,,,
140502003,,"Ermsdorf, Neimillen",,49.838541000000,6.225060000000,0,,0,,,
140502004,,"Ermsdorf, Reisermillen",,49.841353000000,6.224911000000,0,,0,,,
200502001,,"Ernster, Duerfplaz",,49.679511000000,6.248175000000,0,,0,,,
200502002,,"Ernster, Engelshaff",,49.673924000000,6.244028000000,0,,0,,,
200502003,,"Ernster, Naasswiss",,49.682466000000,6.247464000000,0,,0,,,
160602001,,"Ernzen, Kapell",,49.772272000000,6.221182000000,0,,0,,,
160602002,,"Ernzen, Manzebach",,49.777025000000,6.219201000000,0,,0,,,
210105001,,"Erpeldange (Bous), Emeringerhaff",,49.539419000000,6.323211000000,0,,0,,,
210103001,,"Erpeldange (Bous), Kräizgaass",,49.546038000000,6.327284000000,0,,0,,,
210103002,,"Erpeldange (Bous), Rollengerstrooss",,49.546772000000,6.324922000000,0,,0,,,
210103003,,"Erpeldange (Bous), Scheierbierg",,49.542507000000,6.324773000000,0,,0,,,
120905002,,"Erpeldange (Wiltz), Erpeldange",,49.977332000000,5.946857000000,0,,0,,,
140602001,,"Erpeldange-sur-Sûre, An der Gewan",,49.858388000000,6.112837000000,0,,0,,,
140602005,,"Erpeldange-sur-Sûre, Bei der Kierch",,49.861799000000,6.112833000000,0,,0,,,
140602003,,"Erpeldange-sur-Sûre, Bei der Schoul",,49.861228000000,6.114530000000,0,,0,,,
140602002,,"Erpeldange-sur-Sûre, Beim Dreieck",,49.852662000000,6.114887000000,0,,0,,,
140602004,,"Erpeldange-sur-Sûre, Beim Hôtel",,49.865851000000,6.113352000000,0,,0,,,
140602007,,"Erpeldange-sur-Sûre, Beim Schlass",,49.859742000000,6.112597000000,0,,0,,,
140602011,,"Erpeldange-sur-Sûre, Heemricht",,49.869577000000,6.127666000000,0,,0,,,
140602006,,"Erpeldange-sur-Sûre, Laduno",,49.852739000000,6.117962000000,0,,0,,,
140602008,,"Erpeldange-sur-Sûre, Um Dreieck",,49.850831000000,6.114979000000,0,,0,,,
210106001,,"Ersange, Ierséng",,49.576227000000,6.275701000000,0,,0,,,
220402123,,"Esch-sur-Alzette, Auberge de Jeunesse",,49.493732000000,5.984207000000,0,,0,,,
220402004,,"Esch-sur-Alzette, Auszéibréck",,49.498740000000,5.970818000000,0,,0,,,
220402005,,"Esch-sur-Alzette, Avenue de la Paix",,49.508484000000,5.983664000000,0,,0,,,
220402007,,"Esch-sur-Alzette, Avenue du Rock'n'Roll",,49.500514000000,5.947804000000,0,,0,,,
220402076,,"Esch-sur-Alzette, Bd Aloyse Meyer",,49.507655000000,5.991600000000,0,,0,,,
220402125,,"Esch-sur-Alzette, Bd Pierre Krier",,49.501661000000,5.971162000000,0,,0,,,
220402014,,"Esch-sur-Alzette, Bd Prince Henri",,49.491762000000,5.974805000000,0,,0,,,
220402097,,"Esch-sur-Alzette, Bd. Berwart",,49.497262000000,5.987930000000,0,,0,,,
220402012,,"Esch-sur-Alzette, Bd. Hubert Clement",,49.510306000000,5.985858000000,0,,0,,,
220402013,,"Esch-sur-Alzette, Bd. Pierre Dupong",,49.510507000000,5.994569000000,0,,0,,,
220402009,,"Esch-sur-Alzette, Belval",,49.494944000000,5.954795000000,0,,0,,,
220402026,,"Esch-sur-Alzette, Bibliothèque municipale",,49.499231000000,5.984855000000,0,,0,,,
220402108,,"Esch-sur-Alzette, Burgronn",,49.492617000000,5.993366000000,0,,0,,,
220402116,,"Esch-sur-Alzette, Centre hospitalier E. Mayrisch",,49.502105000000,5.982550000000,0,,0,,,
220402020,,"Esch-sur-Alzette, Cinquantenaire",,49.507342000000,5.983660000000,0,,0,,,
220402126,,"Esch-sur-Alzette, Cité Jos Brebsom",,49.502251000000,5.965038000000,0,,0,,,
220402022,,"Esch-sur-Alzette, Cité Verte",,49.509810000000,5.968670000000,0,,0,,,
220402049,,"Esch-sur-Alzette, Clinique Ste Marie",,49.500922000000,5.986721000000,0,,0,,,
220402027,,"Esch-sur-Alzette, Dellhéicht",,49.500492000000,5.982279000000,0,,0,,,
220402061,,"Esch-sur-Alzette, EIDE",,49.496195000000,5.974865000000,0,,0,,,
220402032,,"Esch-sur-Alzette, Ennescht Homescht",,49.494722000000,5.959171000000,0,,0,,,
220402033,,"Esch-sur-Alzette, Fettmeth",,49.504763000000,5.975494000000,0,,0,,,
220402046,,"Esch-sur-Alzette, Gare",,49.493911000000,5.985087000000,0,,0,,,
220402034,,"Esch-sur-Alzette, Gare routière",,49.494813000000,5.986205000000,0,,0,,,
220402050,,"Esch-sur-Alzette, Grand-rue",,49.496882000000,5.982820000000,0,,0,,,
220402109,,"Esch-sur-Alzette, Iewescht Homescht",,49.497502000000,5.947599000000,0,,0,,,
220402068,,"Esch-sur-Alzette, Käler Poteau",,49.485275000000,6.004235000000,0,,0,,,
220402048,,"Esch-sur-Alzette, Kierfecht Lalleng",,49.511029000000,5.987764000000,0,,0,,,
220402052,,"Esch-sur-Alzette, Lallenger Kiirch",,49.507099000000,5.989908000000,0,,0,,,
220402053,,"Esch-sur-Alzette, Lallenger Schoul",,49.510410000000,5.990384000000,0,,0,,,
220402054,,"Esch-sur-Alzette, Leesbierg",,49.499894000000,5.993443000000,0,,0,,,
220402055,,"Esch-sur-Alzette, Lycée des Garçons",,49.499857000000,5.981774000000,0,,0,,,
220402062,,"Esch-sur-Alzette, Lycée Guillaume Kroll",,49.509285000000,5.965014000000,0,,0,,,
220402059,,"Esch-sur-Alzette, Lycée Hubert Clement",,49.502129000000,5.977428000000,0,,0,,,
220402060,,"Esch-sur-Alzette, Lycée Technique Lallange",,49.510805000000,5.984472000000,0,,0,,,
220402064,,"Esch-sur-Alzette, Neiduerf",,49.495972000000,5.990100000000,0,,0,,,
220402132,,"Esch-sur-Alzette, Nonnewisen",,49.506701000000,5.978840000000,0,,0,,,
220402065,,"Esch-sur-Alzette, Nossbierg",,49.491849000000,5.995416000000,0,,0,,,
220402066,,"Esch-sur-Alzette, Op der Leier",,49.504183000000,5.984842000000,0,,0,,,
220402067,,"Esch-sur-Alzette, Op Zaepert",,49.506756000000,5.969010000000,0,,0,,,
220402045,,"Esch-sur-Alzette, Passerelle Gaalgebierg",,49.492754000000,5.983566000000,0,,0,,,
220402070,,"Esch-sur-Alzette, Peckeschhaff",,49.494367000000,5.968599000000,0,,0,,,
220402100,,"Esch-sur-Alzette, Piscine Bains du Parc",,49.500109000000,5.977472000000,0,,0,,,
220402071,,"Esch-sur-Alzette, Place Benelux",,49.502819000000,5.971368000000,0,,0,,,
220402036,,"Esch-sur-Alzette, Place de l'Hôtel de Ville",,49.496257000000,5.985334000000,0,,0,,,
220402035,,"Esch-sur-Alzette, Place de la Paix",,49.504557000000,5.984114000000,0,,0,,,
220402119,,"Esch-sur-Alzette, Place de Lodève",,49.502616000000,5.979947000000,0,,0,,,
220402104,,"Esch-sur-Alzette, Place de Stalingrad",,49.495370000000,5.972105000000,0,,0,,,
220402072,,"Esch-sur-Alzette, Place Norbert Metz",,49.496459000000,5.986669000000,0,,0,,,
220402077,,"Esch-sur-Alzette, Porte de France",,49.502986000000,5.945299000000,0,,0,,,
220402129,,"Esch-sur-Alzette, Porte des Sciences",,49.503915000000,5.947317000000,0,,0,,,
220402079,,"Esch-sur-Alzette, Raemerich",,49.508992000000,5.955406000000,0,,0,,,
220402117,,"Esch-sur-Alzette, Rue A. Useldinger",,49.505209000000,5.972486000000,0,,0,,,
220402024,,"Esch-sur-Alzette, rue d'Ehlerange",,49.507836000000,5.968705000000,0,,0,,,
220402044,,"Esch-sur-Alzette, Rue de l'Hôpital",,49.502022000000,5.980015000000,0,,0,,,
220402086,,"Esch-sur-Alzette, Rue de Schifflange",,49.496462000000,5.989455000000,0,,0,,,
220402105,,"Esch-sur-Alzette, Rue du Tramway",,49.504061000000,5.965612000000,0,,0,,,
220402080,,"Esch-sur-Alzette, Rue Général Patton",,49.501707000000,5.976949000000,0,,0,,,
220402063,,"Esch-sur-Alzette, rue Guillaume Capus",,49.508386000000,5.976901000000,0,,0,,,
220402092,,"Esch-sur-Alzette, Rue Henri Dunant",,49.503266000000,5.981154000000,0,,0,,,
220402137,,"Esch-sur-Alzette, Rue Henri Koch",,49.509010000000,5.964031000000,0,,0,,,
220402018,,"Esch-sur-Alzette, Rue Large",,49.497422000000,5.980312000000,0,,0,,,
220402008,,"Esch-sur-Alzette, rue Marcelle Dauphin",,49.508147000000,5.969392000000,0,,0,,,
220402019,,"Esch-sur-Alzette, Rue Nelson Mandela",,49.490225000000,5.978755000000,0,,0,,,
220402096,,"Esch-sur-Alzette, Rue Victor Hugo",,49.496792000000,5.976785000000,0,,0,,,
220402098,,"Esch-sur-Alzette, Schluechthaus",,49.509968000000,5.976040000000,0,,0,,,
220402221,,"Esch-sur-Alzette, Terres Rouges",,49.491540000000,5.974498000000,0,,0,,,
220402106,,"Esch-sur-Alzette, Tramschapp",,49.506455000000,5.958915000000,0,,0,,,
220402010,,"Esch-sur-Alzette, Uni (Av. des Hauts Fourneaux)",,49.503365000000,5.950065000000,0,,0,,,
220402002,,"Esch-sur-Alzette, Villa Mousset",,49.505322000000,5.987516000000,0,,0,,,
220402112,,"Esch-sur-Alzette, Wobrécken",,49.503532000000,5.976196000000,0,,0,,,
120508002,,"Esch-sur-Sûre, An de Gäert",,49.909944000000,5.936952000000,0,,0,,,
120508001,,"Esch-sur-Sûre, Sebes",,49.910425000000,5.922018000000,0,,0,,,
120501001,,"Eschdorf, An der Driicht",,49.882527000000,5.939458000000,0,,0,,,
120501002,,"Eschdorf, Mairie",,49.884649000000,5.936242000000,0,,0,,,
120501003,,"Eschdorf, Quatre Vents",,49.881361000000,5.941884000000,0,,0,,,
120501004,,"Eschdorf, Um ale Bësch",,49.884337000000,5.952361000000,0,,0,,,
150504001,,"Eschette, Duerf",,49.822981000000,5.886790000000,0,,0,,,
180506001,,"Eschweiler (Junglinster), Bei der Kiirch",,49.717453000000,6.310682000000,0,,0,,,
120902001,,"Eschweiler (Wiltz), Gaass",,49.995635000000,5.947541000000,0,,0,,,
120902002,,"Eschweiler (Wiltz), Halt",,49.985760000000,5.959246000000,0,,0,,,
120902003,,"Eschweiler (Wiltz), Hielert",,49.998607000000,5.948215000000,0,,0,,,
110110001,,"Eselborn, Dueref",,50.062532000000,6.001846000000,0,,0,,,
110110002,,"Eselborn, Neidierfchen",,50.059718000000,6.003089000000,0,,0,,,
160910002,,"Essingen, Essen",,49.777894000000,6.116968000000,0,,0,,,
140701001,,"Ettelbruck, Anc. Clinique",,49.847821000000,6.103190000000,0,,0,,,
140701034,,"Ettelbruck, Apdikt Petry",,49.845984000000,6.098552000000,0,,0,,,
140701050,,"Ettelbruck, Avenue Lucien Salentiny",,49.849058000000,6.100928000000,0,,0,,,
140701020,,"Ettelbruck, Centre Hospitalier du Nord",,49.853057000000,6.094166000000,0,,0,,,
140701008,,"Ettelbruck, Cité Lopert 1",,49.850287000000,6.072411000000,0,,0,,,
140701009,,"Ettelbruck, Cité Patton 1",,49.848779000000,6.083990000000,0,,0,,,
140701045,,"Ettelbruck, CNFPC",,49.839627000000,6.094728000000,0,,0,,,
140701015,,"Ettelbruck, Ecole Primaire",,49.845799000000,6.099091000000,0,,0,,,
140701022,,"Ettelbruck, Gare",,49.847968000000,6.107725000000,0,,0,,,
140701053,,"Ettelbruck, Gare routière",,49.847235000000,6.106127000000,0,,0,,,
140701018,,"Ettelbruck, H.v.Landewyck",,49.839786000000,6.098005000000,0,,0,,,
140701006,,"Ettelbruck, Hall Omnisports",,49.841062000000,6.093312000000,0,,0,,,
140701051,,"Ettelbruck, J-F Kennedy",,49.848736000000,6.105402000000,0,,0,,,
140701021,,"Ettelbruck, L.T.Salentiny",,49.850279000000,6.099146000000,0,,0,,,
140701023,,"Ettelbruck, LTEtt Gare routière",,49.850242000000,6.099742000000,0,,0,,,
140701029,,"Ettelbruck, Patton",,49.850576000000,6.109959000000,0,,0,,,
140701025,,"Ettelbruck, Place du Marché",,49.845892000000,6.096419000000,0,,0,,,
140701024,,"Ettelbruck, Poste",,49.847764000000,6.102720000000,0,,0,,,
140701052,,"Ettelbruck, Prince Henri",,49.847423000000,6.105712000000,0,,0,,,
140701026,,"Ettelbruck, Rond Point",,49.843609000000,6.098714000000,0,,0,,,
140701031,,"Ettelbruck, Rue du Deich (CHNP)",,49.843808000000,6.096379000000,0,,0,,,
140701044,,"Ettelbruck, rue M. Rodange",,49.850588000000,6.079865000000,0,,0,,,
140701042,,"Ettelbruck, rue M. Rodange 39",,49.850919000000,6.076826000000,0,,0,,,
500000156,,"Euren, Eisenbahnstraße",,49.737043000000,6.613519000000,0,,0,,,
150805003,,"Everlange, Beim Engel",,49.775490000000,5.953282000000,0,,0,,,
150805002,,"Everlange, Everléngermillen",,49.777256000000,5.938053000000,0,,0,,,
220103001,,"Fennange, Am Duerf",,49.518982000000,6.075958000000,0,,0,,,
220103002,,"Fennange, Rue des Champs",,49.519688000000,6.083043000000,0,,0,,,
200302003,,"Fentange, An der Hiehl",,49.567444000000,6.152533000000,0,,0,,,
200302001,,"Fentange, Duelemerbaach",,49.569935000000,6.151222000000,0,,0,,,
200302002,,"Fentange, Fuertwee",,49.564192000000,6.152141000000,0,,0,,,
200302004,,"Fentange, Op de Leemen",,49.560894000000,6.147985000000,0,,0,,,
210302002,,"Filsdorf, Beim Wäschbour",,49.533089000000,6.245631000000,0,,0,,,
210302001,,"Filsdorf, Op der Plaz",,49.534193000000,6.247758000000,0,,0,,,
200501006,,Findel,-0,Luxembourg,Airport,,49.635449000000,6.217442000000,0,,0
200602002,,"Findel, Business Center",,49.624052000000,6.193738000000,0,,0,,,
200501003,,"Findel, Cargo Center",,49.638278000000,6.232241000000,0,,0,,,
200602001,,"Findel, Findel",,49.629158000000,6.204565000000,0,,0,,,
200602003,,"Findel, Gréiwelscheierhaff",,49.625821000000,6.198130000000,0,,0,,,
190105002,,"Fingig, Dillesbierg",,49.600855000000,5.901023000000,0,,0,,,
190105003,,"Fingig, Maerchen",,49.602813000000,5.909138000000,0,,0,,,
110111001,,"Fischbach (Clervaux), Bei Prëntzen",,50.073925000000,6.070961000000,0,,0,,,
160402003,,"Fischbach (Mersch), Beim Schlass",,49.746722000000,6.188533000000,0,,0,,,
160403001,,"Fischbach (Mersch), Op der Schmët",,49.751477000000,6.204743000000,0,,0,,,
150505001,,"Flatzbour, Flatzbour",,49.835434000000,5.787488000000,0,,0,,,
180302003,,"Flaxweiler, Am Faubourg",,49.662476000000,6.346371000000,0,,0,,,
180302004,,"Flaxweiler, Beim Knuppeneck",,49.665254000000,6.343972000000,0,,0,,,
180302001,,"Flaxweiler, Buchholz",,49.661411000000,6.361921000000,0,,0,,,
180302002,,"Flaxweiler, Op der Bréck",,49.666358000000,6.342456000000,0,,0,,,
140303002,,"Flebour, Op der Fléiber",,49.908272000000,6.109199000000,0,,0,,,
220802003,,"Foetz, Am Brill",,49.521142000000,6.010636000000,0,,0,,,
220802004,,"Foetz, Am Butterbrill",,49.522092000000,6.009481000000,0,,0,,,
220802008,,"Foetz, Armschlag",,49.532347000000,6.016512000000,0,,0,,,
220802005,,"Foetz, Feitzerhaff",,49.528340000000,6.010361000000,0,,0,,,
220802010,,"Foetz, Rond Point",,49.525375000000,6.004441000000,0,,0,,,
220802009,,"Foetz, Wacquant",,49.525124000000,6.005601000000,0,,0,,,
140504005,,"Folkendange, Bricherhaff",,49.836228000000,6.201063000000,0,,0,,,
140504004,,"Folkendange, Folkendange",,49.842132000000,6.202018000000,0,,0,,,
150506001,,"Folschette, An der Gaass",,49.813087000000,5.877785000000,0,,0,,,
150506002,,"Folschette, Belle-vue",,49.818983000000,5.862312000000,0,,0,,,
150506006,,"Folschette, Carrières",,49.808933000000,5.895662000000,0,,0,,,
150506003,,"Folschette, Centre Culturel",,49.814677000000,5.872507000000,0,,0,,,
150506008,,"Folschette, Hueschterbaach",,49.809231000000,5.891920000000,0,,0,,,
150506004,,"Folschette, Op der Plaz",,49.813315000000,5.874742000000,0,,0,,,
150506005,,"Folschette, Rammericherwee",,49.816538000000,5.868946000000,0,,0,,,
130204002,,"Fouhren, Movida",,49.916735000000,6.192893000000,0,,0,,,
130204001,,"Fouhren, Um Halt",,49.912280000000,6.193850000000,0,,0,,,
300000031,,"Frassem, Carrefour",,49.699379000000,5.824093000000,0,,0,,,
170805002,,"Freckeisen, Auf der Kinderdell",,49.799202000000,6.252559000000,0,,0,,,
170805001,,"Freckeisen, Freckeisen",,49.801567000000,6.259810000000,0,,0,,,
220502001,,"Frisange, Al Gemeng",,49.516605000000,6.187735000000,0,,0,,,
220502006,,"Frisange, Cité Aaluecht",,49.512763000000,6.189842000000,0,,0,,,
220502002,,"Frisange, Ennescht Duerf",,49.516656000000,6.198109000000,0,,0,,,
220502004,,"Frisange, Op der Kräizong",,49.515892000000,6.188770000000,0,,0,,,
220502005,,"Frisange, Park & Ride",,49.506851000000,6.193864000000,0,,0,,,
220502003,,"Frisange, Um Hau",,49.522578000000,6.185411000000,0,,0,,,
400000124,,"Garche, Chênaie",,49.401907000000,6.210241000000,0,,0,,,
400000011,,"Garche, Route de Mondorf",,49.398022000000,6.202494000000,0,,0,,,
200405001,,"Gare, Al Avenue",,49.603043000000,6.133049000000,0,,0,,,
190402002,,"Garnich, Am Brill",,49.613572000000,5.950148000000,0,,0,,,
190402005,,"Garnich, Bei der Schmëtt",,49.616414000000,5.952346000000,0,,0,,,
190402001,,"Garnich, Botterkräiz",,49.610924000000,5.949740000000,0,,0,,,
190402007,,"Garnich, Holzemerstroos",,49.611438000000,5.952915000000,0,,0,,,
190402004,,"Garnich, Rixegoard",,49.615025000000,5.957819000000,0,,0,,,
200412001,,"Gasperich, Al Gaasperech",,49.592234000000,6.121311000000,0,,0,,,
200412002,,"Gasperich, Beethoven",,49.589641000000,6.118336000000,0,,0,,,
200412003,,"Gasperich, Bei der Auer",,49.591277000000,6.124758000000,0,,0,,,
200412026,,"Gasperich, Charles Darwin",,49.584531000000,6.123743000000,0,,0,,,
200412005,,"Gasperich, Clemenceau",,49.589887000000,6.127856000000,0,,0,,,
200412006,,"Gasperich, Cloche d'Or",,49.583476000000,6.115351000000,0,,0,,,
200412007,,"Gasperich, Déportation",,49.593795000000,6.127986000000,0,,0,,,
200412004,,"Gasperich, Émile Bian",,49.580254000000,6.117796000000,0,,0,,,
200412008,,"Gasperich, François Hogenberg",,49.587557000000,6.120963000000,0,,0,,,
200412025,,"Gasperich, Francophonie",,49.584947000000,6.127801000000,0,,0,,,
200412009,,"Gasperich, Gaasperecher Bierg",,49.592774000000,6.116975000000,0,,0,,,
200412021,,"Gasperich, Gerhard Mercator",,49.582564000000,6.123886000000,0,,0,,,
200412024,,"Gasperich, Hildegard von Bingen",,49.582410000000,6.122014000000,0,,0,,,
200412022,,"Gasperich, Jean Piret",,49.583142000000,6.118166000000,0,,0,,,
200412011,,"Gasperich, Klensch",,49.593159000000,6.119429000000,0,,0,,,
200412012,,"Gasperich, Lascombes",,49.594250000000,6.125662000000,0,,0,,,
200412032,,"Gasperich, Lise Meitner",,49.584626000000,6.120320000000,0,,0,,,
200412013,,"Gasperich, Louis de Froment",,49.590252000000,6.117580000000,0,,0,,,
200423006,,"Gasperich, Lycée Vauban",,49.583707000000,6.125341000000,0,,0,,,
200412020,,"Gasperich, Millewee",,49.592062000000,6.127036000000,0,,0,,,
900000011,,"Gasperich, prov. Cloche d'Or Quai 4",,49.583277000000,6.117106000000,0,,0,,,
200412016,,"Gasperich, Richard Wagner",,49.589195000000,6.124271000000,0,,0,,,
200412018,,"Gasperich, Schaarfen Eck",,49.579552000000,6.113133000000,0,,0,,,
200412031,,"Gasperich, Stade de Luxembourg",,49.576813000000,6.111496000000,0,,0,,,
200423009,,"Gasperich, Stadion",,49.576556000000,6.110944000000,0,,0,,,
200412028,,"Gasperich, Stengege Wee",,49.588230000000,6.116219000000,0,,0,,,
200412023,,"Gasperich, Waassertuerm",,49.580724000000,6.120785000000,0,,0,,,
200423008,,"Gasperich, Waassertuerm (Tram)",,49.579910000000,6.120625000000,0,,0,,,
500000011,,"Geichlingen, B50 Abzw. Lahr",,49.953992000000,6.271144000000,0,,0,,,
140203012,,"Gilsdorf, Ackerbauschoul",,49.861004000000,6.167125000000,0,,0,,,
140203001,,"Gilsdorf, An der Kléck",,49.869677000000,6.181687000000,0,,0,,,
140203002,,"Gilsdorf, Bei der Schoul",,49.865267000000,6.179512000000,0,,0,,,
140203010,,"Gilsdorf, Op der Bell",,49.861856000000,6.178824000000,0,,0,,,
170609001,,Girst,,49.773348000000,6.501725000000,0,,0,,,
170609002,,Girst,2,,49.773699000000,6.497984000000,0,,0,,
170603001,,"Givenich, Am Duerf",,49.747079000000,6.478716000000,0,,0,,,
170603002,,"Givenich, Mathias Theisen",,49.749401000000,6.480208000000,0,,0,,,
180507001,,"Godbrange, Bei der Kiirch",,49.734341000000,6.232633000000,0,,0,,,
180507008,,"Godbrange, Op der Haerdchen",,49.733627000000,6.228740000000,0,,0,,,
140304002,,"Goebelsmühle, Gare",,49.921142000000,6.053422000000,0,,0,,,
140304003,,"Goebelsmühle, Op der Gafel",,49.920535000000,6.056289000000,0,,0,,,
140304001,,"Goebelsmühle, Op der Gare",,49.921331000000,6.053116000000,0,,0,,,
190701001,,"Goeblange, Giewel",,49.669559000000,5.965076000000,0,,0,,,
110603001,,"Goedange, Goedange",,50.147522000000,6.011938000000,0,,0,,,
120404001,,"Goesdorf, Gemeng",,49.920738000000,5.970180000000,0,,0,,,
120404002,,"Goesdorf, Maeschgaart",,49.922920000000,5.966076000000,0,,0,,,
120404003,,"Goesdorf, Pompjeën",,49.921340000000,5.966562000000,0,,0,,,
190702001,,"Goetzingen, Kiirch",,49.659790000000,5.980980000000,0,,0,,,
190702002,,"Goetzingen, Kreiz",,49.662172000000,5.979046000000,0,,0,,,
180508001,,"Gonderange, Am Duerf",,49.693275000000,6.244421000000,0,,0,,,
180508002,,"Gonderange, Eeschëlerstrooss",,49.692802000000,6.253130000000,0,,0,,,
180508003,,"Gonderange, Mierchen",,49.699653000000,6.246811000000,0,,0,,,
180508004,,"Gonderange, Op der Bréck",,49.693730000000,6.242976000000,0,,0,,,
180508007,,"Gonderange, Op der Gare",,49.692585000000,6.252355000000,0,,0,,,
180508005,,"Gonderange, Schoul",,49.692706000000,6.247613000000,0,,0,,,
160701001,,"Gosseldange, Kapell",,49.726226000000,6.115627000000,0,,0,,,
160701004,,"Gosseldange, Op der Uelzechtbréck",,49.719889000000,6.118942000000,0,,0,,,
160701002,,"Gosseldange, Route de Schoenfels",,49.728069000000,6.114567000000,0,,0,,,
160701003,,"Gosseldange, Vor Bell",,49.722393000000,6.116312000000,0,,0,,,
180304001,,"Gostingen, Am Ennerduerf",,49.619578000000,6.353051000000,0,,0,,,
180304003,,"Gostingen, Beim Festsall",,49.621871000000,6.355202000000,0,,0,,,
180304002,,"Gostingen, Kiirch",,49.622058000000,6.353911000000,0,,0,,,
300000035,,"Gouvy, Gare",,50.189785000000,5.953846000000,0,,0,,,
130102001,,"Gralingen, Am Bréill",,49.935220000000,6.104801000000,0,,0,,,
130102002,,"Gralingen, Bei der Schull",,49.936455000000,6.099854000000,0,,0,,,
191101003,,"Grass, rue de Kleinbettingen",,49.631402000000,5.891848000000,0,,0,,,
191101002,,"Grass, Um Camping",,49.630630000000,5.891540000000,0,,0,,,
180509001,,"Graulinster, Am Duerf",,49.740696000000,6.287441000000,0,,0,,,
180509002,,"Graulinster, Haaptstrooss",,49.739152000000,6.287881000000,0,,0,,,
190505001,,"Greisch, Op der Quaert",,49.709873000000,5.986851000000,0,,0,,,
210801002,,"Greiveldange, Gemengebréck",,49.586540000000,6.358809000000,0,,0,,,
210801001,,"Greiveldange, Kellerei",,49.587170000000,6.363487000000,0,,0,,,
210801003,,"Greiveldange, Neie Wee",,49.587035000000,6.361055000000,0,,0,,,
210801005,,"Greiveldange, Schoul",,49.586670000000,6.358250000000,0,,0,,,
151003001,,"Grevels, Eneschten Eck",,49.857405000000,5.919065000000,0,,0,,,
151003002,,"Grevels, Ieweschten Eck",,49.849652000000,5.909777000000,0,,0,,,
151003003,,"Grevels, Zentrum",,49.854140000000,5.917236000000,0,,0,,,
160205002,,"Grevenknapp, Riesenhaff",,49.762896000000,6.031765000000,0,,0,,,
160205003,,"Grevenknapp, Um ënnschte Knapp",,49.765460000000,6.028416000000,0,,0,,,
180401001,,"Grevenmacher, Copal",,49.676147000000,6.427412000000,0,,0,,,
180401002,,"Grevenmacher, Enner der Bréck",,49.676782000000,6.443593000000,0,,0,,,
180401003,,"Grevenmacher, Gare routière",,49.680194000000,6.446546000000,0,,0,,,
180401004,,"Grevenmacher, Jardin des Papillons",,49.684053000000,6.449081000000,0,,0,,,
180401009,,"Grevenmacher, Op Flohr",,49.688200000000,6.447503000000,0,,0,,,
180401013,,"Grevenmacher, Potaschbierg",,49.677560000000,6.399521000000,0,,0,,,
180401014,,"Grevenmacher, Potaschbierg Z.I.",,49.679015000000,6.394712000000,0,,0,,,
180401005,,"Grevenmacher, Route de Machtum",,49.670522000000,6.431293000000,0,,0,,,
180401006,,"Grevenmacher, Schoul",,49.682640000000,6.443551000000,0,,0,,,
180401010,,"Grevenmacher, Schoul 2",,49.683065000000,6.441686000000,0,,0,,,
180401007,,"Grevenmacher, Seidenbroch",,49.675042000000,6.421170000000,0,,0,,,
180401011,,"Grevenmacher, Stadion",,49.685842000000,6.447668000000,0,,0,,,
180401008,,"Grevenmacher, Tanneurs",,49.680794000000,6.440737000000,0,,0,,,
110112001,,"Grindhausen, Grandsen",,50.083622000000,6.057981000000,0,,0,,,
151010001,,"Grosbous, Beim Iwwerlaf",,49.829435000000,5.960909000000,0,,0,,,
151010002,,"Grosbous, Kiircheplaz",,49.826234000000,5.965243000000,0,,0,,,
151010003,,"Grosbous, Kiirfënt",,49.825247000000,5.968109000000,0,,0,,,
151010004,,"Grosbous, Op der Baach",,49.828170000000,5.965947000000,0,,0,,,
151010005,,"Grosbous, Police",,49.829887000000,5.967888000000,0,,0,,,
151010006,,"Grosbous, Sprëtzenhaus",,49.826624000000,5.966237000000,0,,0,,,
121004001,,"Gruemelscheid, Hoboesch",,49.985463000000,5.873409000000,0,,0,,,
300000070,,"Grüfflingen, Houffalizerstrasse",,50.230261000000,6.083259000000,0,,0,,,
200413001,,"Grund, Stadgronn-Bréck",,49.608391000000,6.135379000000,0,,0,,,
170104002,,"Grundhof, Bei der Ernz",,49.834870000000,6.330017000000,0,,0,,,
170104001,,"Grundhof, Grondhaff",,49.835729000000,6.329100000000,0,,0,,,
170104003,,"Grundhof, Vugelsmillen",,49.824234000000,6.325441000000,0,,0,,,
110809001,,"Hachiville, Duärrefstrooss",,50.107796000000,5.923244000000,0,,0,,,
110809002,,"Hachiville, Kräizung",,50.104676000000,5.923304000000,0,,0,,,
180206001,,"Hagelsdorf, Hagelsdorf",,49.692312000000,6.364561000000,0,,0,,,
191102001,,"Hagen, 2 Stengëforterstrooss",,49.649131000000,5.927976000000,0,,0,,,
191102002,,"Hagen, Bréck",,49.650242000000,5.936968000000,0,,0,,,
191102003,,"Hagen, Kiirch",,49.648650000000,5.929170000000,0,,0,,,
191102004,,"Hagen, Laach",,49.651155000000,5.923927000000,0,,0,,,
191102005,,"Hagen, Op Eechelter",,49.653737000000,5.921215000000,0,,0,,,
170802001,,"Haller, Beim Basseng",,49.817356000000,6.284695000000,0,,0,,,
170802004,,"Haller, Beim Park",,49.820113000000,6.280286000000,0,,0,,,
170802003,,"Haller, Rue des Romains",,49.819424000000,6.275291000000,0,,0,,,
170802002,,"Haller, Schoul",,49.820135000000,6.282732000000,0,,0,,,
200405020,,Hamilius,(Bus),,49.611504000000,6.125976000000,0,,0,,
200405057,,Hamilius,(Tram),,49.611094000000,6.126139000000,0,,0,,
110810001,,"Hamiville, Beim Toutschewee",,50.044850000000,5.896260000000,0,,0,,,
110810002,,"Hamiville, Haaptstrooss",,50.047308000000,5.901033000000,0,,0,,,
200414001,,"Hamm, Colonie",,49.607082000000,6.155266000000,0,,0,,,
200414002,,"Hamm, Englebert Neveu",,49.605651000000,6.152678000000,0,,0,,,
200414013,,"Hamm, Ierzkaulen",,49.605114000000,6.153886000000,0,,0,,,
200414003,,"Hamm, Käschtewee",,49.612728000000,6.172729000000,0,,0,,,
200414004,,"Hamm, Kierch",,49.610188000000,6.167075000000,0,,0,,,
200414005,,"Hamm, Montmédy",,49.604035000000,6.148453000000,0,,0,,,
200414011,,"Hamm, Peupliers",,49.612132000000,6.164899000000,0,,0,,,
200414009,,"Hamm, Ronndréisch",,49.614840000000,6.174489000000,0,,0,,,
200414006,,"Hamm, Rue de Bitbourg",,49.613187000000,6.169781000000,0,,0,,,
200414007,,"Hamm, Rue Haute",,49.611019000000,6.169782000000,0,,0,,,
200414008,,"Hamm, Schoul",,49.609145000000,6.161985000000,0,,0,,,
120703001,,"Harlange, Bei der Schoul",,49.931939000000,5.786130000000,0,,0,,,
120703002,,"Harlange, Bréck",,49.930545000000,5.788077000000,0,,0,,,
201101001,,"Hassel, Dielchen",,49.551043000000,6.204709000000,0,,0,,,
201101002,,"Hassel, Karmesch",,49.550046000000,6.208859000000,0,,0,,,
201101003,,"Hassel, Küneftchen",,49.548742000000,6.212598000000,0,,0,,,
150510001,,"Haut-Martelange, Gare",,49.832751000000,5.742323000000,0,,0,,,
150510002,,"Haut-Martelange, Leekoll",,49.825170000000,5.752679000000,0,,0,,,
110604002,,"Hautbellain, Bellain Gare",,50.151086000000,5.978358000000,0,,0,,,
110604001,,"Hautbellain, Hautbellain",,50.155627000000,5.976924000000,0,,0,,,
190102001,,"Hautcharage, Crèche",,49.576918000000,5.909563000000,0,,0,,,
190102005,,"Hautcharage, Op der Kapel",,49.580374000000,5.909953000000,0,,0,,,
190102003,,"Hautcharage, Stade",,49.573768000000,5.919308000000,0,,0,,,
190102004,,"Hautcharage, Um Kläppchen",,49.574869000000,5.909305000000,0,,0,,,
400000015,,"Hayange, Esplanade",,49.329059000000,6.066027000000,0,,0,,,
160501006,,"Heffingen, Abri (Centre)",,49.770296000000,6.239712000000,0,,0,,,
160501001,,"Heffingen, Al Gemeng",,49.769427000000,6.240276000000,0,,0,,,
160501002,,"Heffingen, Centre",,49.770400000000,6.239929000000,0,,0,,,
160501003,,"Heffingen, Rue de Christnach",,49.770926000000,6.244635000000,0,,0,,,
160603001,,"Heffingen, Scherfemillen",,49.782259000000,6.231738000000,0,,0,,,
160501005,,"Heffingen, Soup",,49.767222000000,6.230040000000,0,,0,,,
160501004,,"Heffingen, Thommes",,49.763258000000,6.241501000000,0,,0,,,
120502001,,"Heiderscheid, Fuussekaul",,49.878193000000,5.993055000000,0,,0,,,
120502002,,"Heiderscheid, Heiderscheid",,49.886687000000,5.978341000000,0,,0,,,
120502003,,"Heiderscheid, Zone Commerciale",,49.885174000000,5.982099000000,0,,0,,,
120503001,,"Heiderscheidergrund, Beim Bréckert",,49.904885000000,5.956417000000,0,,0,,,
110103001,,"Heinerscheid, Bei Dikches",,50.091828000000,6.084504000000,0,,0,,,
110103002,,"Heinerscheid, Bei Millisch",,50.098740000000,6.086433000000,0,,0,,,
110103004,,"Heinerscheid, Buregaass",,50.098037000000,6.089217000000,0,,0,,,
110103003,,"Heinerscheid, Geméin",,50.094662000000,6.086653000000,0,,0,,,
200802001,,"Heisdorf, Altersheem",,49.676041000000,6.134926000000,0,,0,,,
200802002,,"Heisdorf, Bei der Parkmauer",,49.671172000000,6.135905000000,0,,0,,,
200802003,,"Heisdorf, Gare",,49.675100000000,6.139417000000,0,,0,,,
200802004,,"Heisdorf, Klouster",,49.674509000000,6.137331000000,0,,0,,,
200802005,,"Heisdorf, Millewee",,49.668760000000,6.135160000000,0,,0,,,
151004001,,"Heispelt, Heispelt",,49.854929000000,5.881903000000,0,,0,,,
200102003,,"Helfenterbréck, Pletzer",,49.603605000000,6.075389000000,0,,0,,,
220503001,,"Hellange, Beteburgerstrooss",,49.506137000000,6.141939000000,0,,0,,,
220503002,,"Hellange, Hoëner Halt",,49.510498000000,6.158306000000,0,,0,,,
220503003,,"Hellange, Kiirch",,49.507565000000,6.148432000000,0,,0,,,
160804001,,"Helmdange, Fautelfiels",,49.694200000000,6.140903000000,0,,0,,,
201003001,,"Helmsange, Barriär",,49.659965000000,6.135649000000,0,,0,,,
201003002,,"Helmsange, Mercatoris",,49.665869000000,6.134290000000,0,,0,,,
201003004,,"Helmsange, Tricentenaire",,49.662343000000,6.133250000000,0,,0,,,
170203001,,"Hemstal, Am Ieweschten Duerf",,49.740981000000,6.337062000000,0,,0,,,
170203002,,"Hemstal, Kiirch",,49.739373000000,6.333611000000,0,,0,,,
170604002,,"Herborn, Hierber Millen",,49.740536000000,6.424747000000,0,,0,,,
170604001,,"Herborn, Kiercheplaz",,49.747267000000,6.427667000000,0,,0,,,
170204001,,"Hersberg, Heeschbreg",,49.755851000000,6.327666000000,0,,0,,,
400000016,,"Herserange, Concorde",,49.523494000000,5.798763000000,0,,0,,,
400000149,,"Herserange, Godfroy",,49.522753000000,5.794112000000,0,,0,,,
400000017,,"Herserange, La Folie",,49.520282000000,5.789713000000,0,,0,,,
400000019,,"Herserange, Mairie",,49.518614000000,5.785027000000,0,,0,,,
400000148,,"Herserange, Paris",,49.521665000000,5.792207000000,0,,0,,,
400000020,,"Herserange, Quatre Vents",,49.523932000000,5.801940000000,0,,0,,,
400000021,,"Herserange, St. Eloi",,49.517079000000,5.779987000000,0,,0,,,
200303001,,"Hesperange, Am Keller",,49.573387000000,6.157324000000,0,,0,,,
200303002,,"Hesperange, Cité Um Schlass",,49.572921000000,6.143904000000,0,,0,,,
200303003,,"Hesperange, Holleschbierg",,49.577439000000,6.162581000000,0,,0,,,
200303004,,"Hesperange, Itziger Eck",,49.574425000000,6.160016000000,0,,0,,,
200303005,,"Hesperange, Sprëtzenhaus",,49.571959000000,6.153768000000,0,,0,,,
200305009,,"Hesperange, Um Schlass",,49.572130000000,6.144656000000,0,,0,,,
200303006,,"Hesperange, Urbengsschlass",,49.571491000000,6.159993000000,0,,0,,,
200303007,,"Hesperange, Wollefsmillen",,49.577122000000,6.153745000000,0,,0,,,
400000065,,"Hettange Grande, Cité des Jardins",,49.400307000000,6.160457000000,0,,0,,,
400000048,,"Hettange Grande, Place Schuman",,49.403468000000,6.157669000000,0,,0,,,
400000150,,"Hettange Grande, Tilleuls",,49.394318000000,6.165695000000,0,,0,,,
400000024,,"Hettange-Grande, Gare SNCF",,49.407573000000,6.157018000000,0,,0,,,
120504001,,"Hierheck, Hierheck",,49.873740000000,5.930387000000,0,,0,,,
170610001,,"Hinkel, Haaptstrooss",,49.782955000000,6.514651000000,0,,0,,,
170610002,,"Hinkel, Hinkel",,49.783933000000,6.514115000000,0,,0,,,
170610003,,"Hinkel, Schiltzhaus",,49.786133000000,6.508459000000,0,,0,,,
110825001,,"Hinterhassel, Maison 3",,50.056263000000,5.862700000000,0,,0,,,
190403001,,"Hivange, Areler Strooss",,49.604934000000,5.924389000000,0,,0,,,
190403003,,"Hivange, Kleng Béiwéng",,49.603725000000,5.926638000000,0,,0,,,
190502001,,"Hobscheid, Ehnerpad",,49.696040000000,5.918873000000,0,,0,,,
190502002,,"Hobscheid, Hiehl",,49.684936000000,5.916095000000,0,,0,,,
190502008,,"Hobscheid, Kreizerbuch",,49.701399000000,5.915371000000,0,,0,,,
190502007,,"Hobscheid, Laiterie",,49.687600000000,5.913070000000,0,,0,,,
190502006,,"Hobscheid, Ruppert",,49.685615000000,5.916579000000,0,,0,,,
190502003,,"Hobscheid, Schoul",,49.687677000000,5.913606000000,0,,0,,,
190502004,,"Hobscheid, Steekaul",,49.693504000000,5.917910000000,0,,0,,,
190502005,,"Hobscheid, Virstad",,49.679980000000,5.920180000000,0,,0,,,
110811002,,"Hoffelt, Bei der Kirich",,50.098956000000,5.921321000000,0,,0,,,
110811003,,"Hoffelt, Beim Huälleweeg",,50.103069000000,5.922078000000,0,,0,,,
110811001,,"Hoffelt, Driicht",,50.097723000000,5.916547000000,0,,0,,,
110811004,,"Hoffelt, Duarrefstrooss",,50.095925000000,5.919670000000,0,,0,,,
160211001,,"Hollenfels, Kuelbecherhaff",,49.717780000000,6.062246000000,0,,0,,,
160210001,,"Hollenfels, Schoul",,49.712740000000,6.048169000000,0,,0,,,
160210002,,"Hollenfels, Veräinsbau",,49.714693000000,6.050528000000,0,,0,,,
110704001,,"Holler, Bréiel",,50.122766000000,6.046817000000,0,,0,,,
200415002,,"Hollerich, Aciérie",,49.597233000000,6.117916000000,0,,0,,,
200415001,,"Hollerich, Alphonse Munchen",,49.604515000000,6.114815000000,0,,0,,,
200415016,,"Hollerich, AVL Portal",,49.599119000000,6.105527000000,0,,0,,,
200415003,,"Hollerich, Fonderie",,49.598575000000,6.126667000000,0,,0,,,
200415014,,"Hollerich, Gare",,49.595390000000,6.120862000000,0,,0,,,
200415004,,"Hollerich, Gare routière",,49.595176000000,6.120957000000,0,,0,,,
200415005,,"Hollerich, Heentze Park",,49.601404000000,6.119940000000,0,,0,,,
200415006,,"Hollerich, Jean-Baptiste Merkels",,49.599154000000,6.121374000000,0,,0,,,
200415017,,"Hollerich, Kierfecht",,49.599603000000,6.111949000000,0,,0,,,
200415008,,"Hollerich, Nancy",,49.603409000000,6.118451000000,0,,0,,,
200415009,,"Hollerich, P+R Bouillon",,49.600100000000,6.106286000000,0,,0,,,
200415011,,"Hollerich, Poincaré",,49.602274000000,6.116608000000,0,,0,,,
200415012,,"Hollerich, Salzhaff",,49.600029000000,6.117862000000,0,,0,,,
200415013,,"Hollerich, Schluechthaus",,49.600322000000,6.117318000000,0,,0,,,
150507003,,"Holtz, Héiltzerstee",,49.808973000000,5.783834000000,0,,0,,,
150507001,,"Holtz, Molkerei",,49.806389000000,5.790900000000,0,,0,,,
150507002,,"Holtz, Um Bur",,49.809503000000,5.794851000000,0,,0,,,
190902001,,"Holzem, Bei der Bréck",,49.614149000000,5.990159000000,0,,0,,,
190902004,,"Holzem, Boschebierg",,49.616903000000,5.986403000000,0,,0,,,
